"id","name","lat","lon"
1,"Amis (Central)",23.130257185291,121.3330078125
2,"Amis (Farang)",23.333333,121.333333
3,"Amis (Fata'an)",23.333333,121.333333
4,"Atayal - C'uli' F69 (Bandai)",24.5471231797308,121.300048828125
5,"Atayal - C'uli' L04 (Mayrinax)",24.52089,121.38819
6,"Atayal - C'uli' L04 (Skikun)",24.5,121.333333
7,"Atayal - Squliq F69",24.567108352576,121.453857421875
8,"Atayal - Squliq L04",24.5,121.333333
9,"Babuza Ts82",24.00168,120.58462
10,"Basay L04",25.0046,121.857
11,"Basay TsYM91",23.2652036192958,121.913826267022
12,"Bunun (Takituduh L88)",23.41164,121.02534
13,"Bunun F69, Southern",23.2652036192958,121.913826267022
14,"Favorlang F69",23.89588,120.75073
15,"Favorlang OL03",24.0017,120.585
16,"Hoanya Ts82",24.32398,120.57694
17,"Kanakanabu F69",23.044,120.59
18,"Kanakanabu L04",23.3235,120.887
19,"Kavalan F69",24.9163314045991,121.805419921875
20,"Kavalan LTs",24.69475,121.64463
21,"Paiwan (Butanglu L04)",22.5,120.833333
22,"Paiwan (Kulalao F82)",22.289096418723,120.78369140625
23,"Paiwan (Stimul L04)",22.5,120.833333
24,"Paiwan (Tjatjigel Egli)",22.3271,120.806
25,"Paiwan (Tjubar L04)",22.5,120.833333
26,"Papora Ts82",24.32398,120.57694
27,"Pazih F69",23.2652036192958,121.913826267022
28,"Pazih LTs (Auran)",23.75624,120.97577
29,"Proto-Puyuma",22.64302,120.99631
30,"Proto-Tsouic",23.21605,120.78663
31,"Puyuma (Chihpen F69)",22.7837785386086,121.110534667969
32,"Puyuma (Nanwang Cq)",22.64302,120.99631
33,"Rukai (Budai F69)",22.8166941268998,120.91552734375
34,"Rukai (Budai L04)",22.833333,120.833333
35,"Rukai (Maga L04)",22.833333,120.833333
36,"Rukai (Mantauran L04)",22.833333,120.833333
37,"Rukai (Tanan L04)",22.833333,120.833333
38,"Rukai (Tona)",22.833333,120.833333
39,"Saaroa F69",22.811,120.591
40,"Saaroa L04",23.2632,120.711
41,"Saisiyat F69",24.5646103801768,120.995178222656
42,"Seediq F69 (Sakura)",24.1467535947031,121.453857421875
43,"Seediq L04 (Hecuo)",24.166667,121.416667
44,"Seediq L04 (Paran)",24.166667,121.416667
45,"Seediq L04 (Toda)",24.166667,121.416667
46,"Seediq L04 (Truku)",24.166667,121.416667
47,"Siraya F69",22.917922936146,120.76171875
48,"Taokas Ts82",24.00168,120.58462
49,"Thao B96",23.875791916101,120.877075195312
50,"Tsou (Duhtu L04)",23.5,120.75
51,"Tsou T63",23.5,120.75
52,"Agta",18.1980436867627,121.959228515625
53,"Aklanon - Bisayan",11.5338521915105,122.36572265625
54,"Alangan",13.0982,121.022
55,"Arta",16.4185,121.656
56,"Atta, Pamplona",18.12497,120.91553
57,"Ayta Abellen",15.4131,120.2
58,"Ayta Ambala",14.8156,120.283
59,"Ayta Mag-anchi",15.1954,120.459
60,"Ayta Mag-antsi",15.1954,120.459
61,"Ayta Mag-indi",14.9617,120.182
62,"Babuyan",19.5183754786016,121.959228515625
63,"Balangaw",17.17,121.17
64,"Banggi",7.29249,117.17448
65,"Bantik",1.49397130662932,124.8486328125
66,"Bantoanon (Banton)",12.51942,122.03419
67,"Batak, Palawan",10.081456652992,119.536079689071
68,"Batangan",12.6396,121.21
69,"Bikol (Bisakol)",13.7574,123.403
70,"Bikol (Buhinon)",13.19891,123.48979
71,"Bikol (Naga City)",13.58192,123.17871
72,"Bikol (Rinconada)",13.38959,123.3307
73,"Bilaan, Koronadal",6.20529,125.00664
74,"Bilaan, Sarangani",6,125.333333
75,"Binukid",8.25,124.83
76,"Bolaang Mongondow",0.981806749482678,124.764225332537
77,"Bolinao",16.3071,119.853
78,"Bontok, Eastern",17.03193,121.11048
79,"Bontok, Guina-ang",17,121
80,"Bontok, Guina-ang",17.08,120.92
81,"Botolan Sambal",15.2315,120.164
82,"Buhid",12.6396,121.21
83,"Buol",0.97727,121.51903
84,"Butuanon",8.87009,125.41841
85,"Capisano",11.41215,122.95359
86,"Cebuano",10.4337932431844,123.81591796875
87,"Cuyonon",10.32008,119.30028
88,"Dumagat, Casiguran",16.7835055619278,122.01416015625
89,"Dupaningan Agta",17.37477,122.18812
90,"Gaddang",16.55196,121.24512
91,"Gorontalo (Hulondalo)",0.549307991112515,122.67333984375
92,"Hanunoo",12.4159,121.221
93,"Hanunóo",12.4687601448232,121.2451171875
94,"Hiligaynon",-11.2753866926,166.48681640625
95,"Ibaloi",16.42625,120.69508
96,"Ibanag",17.4240286338779,121.9482421875
97,"Ifugao, Amganad",16.8981626896678,120.959618217957
98,"Ifugao, Batad",16.8981626896678,120.959618217957
99,"Ifugao, Bayninan",16.8981626896678,120.959618217957
100,"Ilokano",17.6440220278727,121.11328125
101,"Ilonggo",10.25,123
102,"Ilongot, Kakiduge:n",17.0215281803367,121.114185950016
103,"Imorod",20.76639,121.85211
104,"Inati (Nagpana)",11.1539,122.512
105,"Inibaloi",14.986557930305,122.286669255782
106,"Iranun",6.50635695181804,116.54296875
107,"Iraralay",20.81004,121.86859
108,"Iraya",13.381,120.65
109,"Isamorong",20.72529,121.81915
110,"Isinay (Dupax)",16.3299,121.12
111,"Isneg, Dibagat-Kabugao-Isneg",17.9182391680679,122.13587726436
112,"Itawis",17.73286,121.5796
113,"Itawis",17.7329,121.58
114,"Itbayat",20.7509771440778,121.83837890625
115,"Itbayaten",20.7509771440778,121.83837890625
116,"Itbayaten",20.333333,121.833333
117,"Itneg, Binongan",17.9182391680679,122.13587726436
118,"Ivasay",20.3858253818743,121.9482421875
119,"Ivatan, Basco Dialect",20.5,122
120,"Kagayanen",10.4656,119.872
121,"Kaidipang",0.884364296613886,123.096313476562
122,"Kakiduge:n Ilongot",17.0215281803367,121.114185950016
123,"Kalagan",7.1,125.595
124,"Kalinga (Minangali)",17.34407,121.31148
125,"Kalinga, Guinaang, Lubuagan Dialect",17.58119,121.20117
126,"Kalinga, Limos",17.60813,121.38057
127,"Kalinga, Southern",17.29358,121.06787
128,"Kallahan, Kayapa Proper",16.35177,120.88806
129,"Kallahan, Keleyqiq",16.70197,121.10092
130,"Kankanaey",16.8548,120.68924
131,"Kankanay, Northern",16.8981626896678,120.959618217957
132,"Kapampangan",14.9603,120.502
133,"Kapampangan",14.986557930305,122.286669255782
134,"Kinaray-a",10.81307,122.2969
135,"Koronadal Blaan",6.03131070712582,125.068359375
136,"Maguindanaon",6.9453,124.50856
137,"Malaweg",17.7329,121.58
138,"Mamanwa",9.18887,125.8374
139,"Manide",14.1571,122.835
140,"Manobo, Ata (down-river)",7.66608,124.21623
141,"Manobo, Ata (up-river)",7.70147,124.27391
142,"Manobo, Dibabawon",7.68956,124.24816
143,"Manobo, Ilianen (Kibudtungan Dialect)",7.2208,124.24713
144,"Manobo, Kalamansig Cotabato (Paril Dialect)",7.69075,124.24782
145,"Manobo, Sarangani, Kayaponga Dialect",5.92204,125.22217
146,"Manobo, Tigwa, Iglogsad Dialect",7.64022,124.37897
147,"Manobo, Western Bukidnon",7.67,124.75
148,"Mansaka",7.09544,126.17798
149,"Maranao",7.7218784993245,124.1455078125
150,"Marinduque Tagalog",15,121
151,"Masbatenyo",12.21453,123.63579
152,"Naga Bikol",13.1989,123.49
153,"Palawan Batak",9.76831962330826,119.569541928441
154,"Pangasinan",15.92,120.33
155,"Ponosakan",0.9172,124.712
156,"Ratagnon",12.2785,121.187
157,"Romblon",12.40466,122.56031
158,"S.W. Palawano",8.5538618,117.3367309
159,"Samar-Leyte",12,125
160,"Sambal",15.5797,120.095
161,"Sambal, Botolan",15.26299,120.20142
162,"Sangil, Saragani Islands",9.93842,125.07797
163,"Sangir",1.41709182944164,125.211181640625
164,"Sangir, Tabukang Dialect",3.5,125.5
165,"Sarangani Blaan",5.87833210967433,125.33203125
166,"Sinauna",14.62541,121.45323
167,"Sogodnin (Boracay)",11.1539,122.512
168,"Sogodnin (Iloilo)",11.1539,122.512
169,"Subanon, Siocon",7.81479247850091,123.193018260784
170,"Subanun, Sindangan",8.02833448071282,123.320544612578
171,"Surigaonon",8.83829831149302,125.62105490998
172,"Tadyawan",13.0211,121.305
173,"Tagabili",6.17,124.5
174,"Tagalog",14.5623177019149,121.0693359375
175,"Tagalog",14.111058552195,121.879257723817
176,"Tagalog (Anthony dela Paz)",14.111058552195,121.879257723817
177,"Tagbanwa, Aborlan Dialect",10.081456652992,119.536079689071
178,"Tagbanwa, Kalamian, Coron Island Dialect",11.4475630345007,120.644042490729
179,"Tausug, Jolo Dialect",5.70411960668088,121.268401294372
180,"Tboli (Tagabili)",6.22793393026867,124.354248046875
181,"Tiruray",6.77321,124.12673
182,"Tonsea",1.51393,125.05212
183,"Tontemboan",1.16447060718061,124.56298828125
184,"Umiray Dumaget",14.8757,121.508
185,"Waray-Waray",12,125
186,"Western Bukidnon Manobo",7.66744148272607,124.716796875
187,"Yami",21.1126871176768,121.953735351562
188,"Yami",23.2652036192958,121.913826267022
189,"Yogad",16.70149,121.71773
190,"Acehnese",3.90757,96.60325
191,"Andio",-0.8837,123.174
192,"Bahonsuai",-2.2257,121.707
193,"Bajo",-3.16246,119.53125
194,"Bajo (Anaiwoi)",-4.434044,121.552734375
195,"Bajo (Bajoe)",-4.54357,120.256347
196,"Bajo (Boepinang)",-4.696879026,121.607666015625
197,"Bajo (Kaleroang)",-3.01984110616897,122.398681640625
198,"Bajo (Kayuadi)",-6.7737162387535,120.78369140625
199,"Bajo (Kolo Bawah)",-1.64772205179692,121.83837890625
200,"Bajo (Lakaramba)",-4.54630822474438,122.725524902344
201,"Bajo (Lakonea)",-4.7078283752183,123.145751953125
202,"Bajo (Langara Laut)",-4.03961782676842,122.969970703125
203,"Bajo (Lapulu)",-4.42309047796092,122.228393554688
204,"Bajo (Lauru)",-4.81731231582612,122.047119140625
205,"Bajo (Lemo Bajo)",-4.05057678613347,122.54150390625
206,"Bajo (Luwuk)",-1.09856549604066,122.607421875
207,"Bajo (Moramo)",-4.17111545486,122.689819335938
208,"Bajo (Padei Laut)",-3.57373032012654,123.118286132812
209,"Bajo (Pitulua)",-3.51342104564004,121.0693359375
210,"Balinese",-8.32021228952294,115.0927734375
211,"Banggai (W.dialect)",-1.60653993431162,123.513793945312
212,"Bangka Malay",-1.7329,105.897
213,"Banjarese Malay",-1.19701784735807,113.354967120357
214,"Bare'e",-1.75,120.83
215,"Belait",4.43404,114.33472
216,"Berawan (Long Terawan)",3.95194,114.64233
217,"Besemah",-3.60114,103.0957
218,"Bintulu",2.96882635733302,112.440793931919
219,"Bonerate",-7.38970540131017,121.788940429688
220,"Bukat",1.1864386394452,113.291015625
221,"Bundu Dusun (Central Dusun)",6.02998,116.68089
222,"Bungku",-3.222,122.212
223,"Bungku (Landawe)",-3.222,122.212
224,"Bungku (Routa)",-3.222,122.212
225,"Bungku (Torete)",-3.222,122.212
226,"Bungku (Tulambatu)",-3.222,122.212
227,"Bungku (Waia)",-3.222,122.212
228,"Cham, Western",12,105.5
229,"Chru",11.5,108.5
230,"Dayak Bakatiq-Sara/Riok",1.05463,109.42383
231,"Dayak Ngaju",1.416667,109.833333
232,"Dayak Ngaju",-2.67969,114.47754
233,"Dusun Tuhauon (Tambunan)",5.68284,116.3726
234,"Hainan Cham",18.25,109.5
235,"Iban",0.527336304811517,112.7197265625
236,"Ida'an",5.06906,118.25684
237,"Inabaknon",12.41981,124.16679
238,"Indonesian",-3.59419889631258,108.183319082899
239,"Jambi Malay",-2.6469,103.13
240,"Jarai",13.69433,108.14356
241,"Kadazan Dusun of Taginambur, Kota Belud, Sabah, Malaysia",6.1424,117.176
242,"Kadorih",-0.3955,113.46875
243,"Kambowa",-4.9901,122.951
244,"Katingan",-1.36217634666416,113.75244140625
245,"Kayan (Uma Juman)",1.31824,111.70898
246,"Kelabit (Bario)",3.67,115.42
247,"Kenyah (Long Anap)",4.48881,114.06006
248,"Kerinci",-2.24063960938272,101.6015625
249,"Kioko",-4.9901,122.951
250,"Kodeoha",-3.222,122.212
251,"Koroni",-2.6367,121.977
252,"Kulisusu",-4.5841,123.045
253,"Lahanan",2.49037,114.67255
254,"Lahat (Central Malay)",-3.7967,103.137
255,"Lebo' Vo'",3.5444,114.039
256,"Lepo' Gah",3.5444,114.039
257,"Lepo' Laang",3.5444,114.039
258,"Lepo' Sawa",3.5444,114.039
259,"Lepo' Tau",3.5444,114.039
260,"Lom (Mapurese)",-1.7329,105.897
261,"Low Malay (1773)",3.166667,101.7
262,"Lundayeh",3.9244,115.86096
263,"Ma'anyan",-2.34878701781515,114.85075347668
264,"Malagasy (Sakalava)",-20.28,44.32
265,"Malagasy (Tanala)",-19.5907,47.1211
266,"Malagasy (Tandroy)",-24.8015,45.9
267,"Malay (Bahasa Indonesia)",-6.66461,106.875
268,"Mapun",9.583333,121.2
269,"Melanau (Mukah)",2.5,111.5
270,"Melayu",3,102
271,"Melayu Ambon",-4,128
272,"Melayu Brunei (Dialect)",4.54905,114.57092
273,"Melayu Sarawak (dialect)",3.166667,101.7
274,"Merina (Malagasy)",-19.3940678953966,46.845703125
275,"Minangkabau",-0.65916514628945,100.92041015625
276,"Modang",0.06042,111.34094
277,"Mori",-2.48213340373056,121.31103515625
278,"Mori Atas (Doule)",-2.2555,121.035
279,"Mori Atas (Impo)",-2.2555,121.035
280,"Mori Atas (Kolo-Kolo)",-2.2555,121.035
281,"Mori Atas (Lolonggoio)",-2.2555,121.035
282,"Mori Atas (Molio'A)",-2.2555,121.035
283,"Mori Atas (Molongkuni)",-2.2555,121.035
284,"Mori Atas (Olota)",-2.2555,121.035
285,"Mori Atas (Tambee)",-2.2555,121.035
286,"Mori Atas (Ulu'Uwoi)",-2.2555,121.035
287,"Mori Atas (Wulanderi)",-2.2555,121.035
288,"Mori Bawah (<U+014A>gusumbatu)",-2.5602,121.37
289,"Mori Bawah (Bahano)",-2.5602,121.37
290,"Mori Bawah (Kangua)",-2.5602,121.37
291,"Mori Bawah (Karunsi'E)",-2.5602,121.37
292,"Mori Bawah (Mo'Iki)",-2.5602,121.37
293,"Mori Bawah (Petasia)",-2.5602,121.37
294,"Mori Bawah (Roda)",-2.5602,121.37
295,"Mori Bawah (Soroako)",-2.5602,121.37
296,"Mori Bawah (Tofatu)",-2.5602,121.37
297,"Mori Bawah (Watu)",-2.5602,121.37
298,"Moronene",-4.6236,121.824
299,"Moronene (Mornene)",-4.6236,121.824
300,"Moronene (Tokotu'A)",-4.6236,121.824
301,"Muna (Katobu-Tongkuno Dialect)",-5.11957755314463,122.914952489225
302,"Ogan",-2.69797689175062,104.915771372616
303,"Padoe",-2.6064,121.236
304,"Paser",-1.8026,115.876
305,"Phan Rang Cham (Eastern Cham)",11.3347096546263,109.045927013325
306,"Popalia",-4.25877,122.47559
307,"Punan Kelai",2.43823,116.71875
308,"Rhade",12.979,108.40989
309,"Roglai, Northern",12.19672,108.8486
310,"Sama (Pangutaran)",6.27167,120.53586
311,"Sama (Sibutu)",5.13894,119.92596
312,"Samal, Siasi Dialect",5.53945,120.84961
313,"Sasak",-8.66791800236312,116.279296875
314,"Singhi",1.31824,110.34668
315,"Sumbawa",-8.71919,117.47199
316,"Taloki",-4.6478,122.872
317,"Ternate (Pasar-Lingua franca)",-0.86437,128.32323
318,"Timugon (Murut)",5,116
319,"Tolaki",-4.03577,121.88825
320,"Tolaki (Asera)",-4.0358,121.888
321,"Tolaki (Konawe)",-4.0358,121.888
322,"Tolaki (Laiwui)",-4.0358,121.888
323,"Tolaki (Mekongga)",-4.0358,121.888
324,"Tolaki (Wiwirano)",-4.0358,121.888
325,"Tomadino",-2.5649,121.944
326,"Tomini (Tialo)",0.42569,120.89031
327,"Totoli",1.14995,120.87458
328,"Tunjung",-1.20840649727186,116.03759765625
329,"Uma (Kantewu dialect)",-1.7042,119.968
330,"Urak Lawoi'",8,98.333333
331,"Waru",-3.412,122.058
332,"Waru (Lalomerui)",-3.412,122.058
333,"Wawonii",-4.1359,123.1
334,"Wawonii (Menui)",-4.1359,123.1
335,"Wiau",-3.2463,121.059
336,"Wolio",-5.76494403414826,123.898927157444
337,"Wuna",-5,122.5
338,"Yakan",6.54455998565332,122.05810546875
339,"Alune",-3.10042061270418,128.174456135632
340,"Amahai",-3.32028,128.93888
341,"Anakalang",-9.71988586246517,119.674072265625
342,"Aputai",-7.86338180530917,126.5185546875
343,"Atoni",-9.88228,124.05762
344,"Batuley",-5.8144,134.7843
345,"Bima",-8.53756535080402,118.5205078125
346,"Bobot",-3.49871005693759,130.624210207743
347,"Bonfia",-3.11858,130.51758
348,"Buru [Namrole Bay]",-3.5,126.5
349,"Central Masela",-8.4998402862252,130.117203993592
350,"Dadu'a",-8.6107,125.959
351,"Dai",-7.89260840513193,129.960107506771
352,"Dawera-Daweloor",-7.89260840513193,129.960107506771
353,"Dobel (Koijabi dialect)",-6.3253,134.638
354,"East Damar",-8.07258086134465,128.463215743173
355,"East Masela",-8.1595,129.8505
356,"East Sumbanese Kambera, Southern dialect",-10.0734060631886,120.702381123445
357,"East Sumbanese, Lewa dialect",-10.0734060631886,120.702381123445
358,"East Sumbanese, Umbu Ratu Nggai dialect",-10.0734060631886,120.702381123445
359,"Elat, Kei Besar",-5.64059,133.01697
360,"Emplawas",-8.28444635517256,129.917695058198
361,"Ende",-8.833333,121.65
362,"Erai",-7.78787,126.31256
363,"Fatakai (Nuaulu)",-3.2341,129.148
364,"Fordata",-7.289,131.511
365,"Galolen (Talur)",-7.88514728342433,126.45263671875
366,"Gaura Nggaura",-10,119
367,"Geser",-3.49871005693759,130.624210207743
368,"Hewa",-8.597711,122.708209
369,"Hitu (Ambon)",-3.63834191649498,128.268702434322
370,"Iliun",-7.8416151852047,125.92529296875
371,"Imroing",-8.28444635517256,129.917695058198
372,"Kambera",-9.99049080307028,120.38818359375
373,"Kédang",-8.24411005754921,123.7939453125
374,"Kei (Tanimbar-Kei)",-5.98610653670308,132.469197528538
375,"Kemak",-8.98546,125.22766
376,"Kisar",-8.02659484248955,127.188720703125
377,"Kodi",-9.55741735684131,118.970947265625
378,"Koiwai (Irian Jaya)",-3.66693,133.7915
379,"Kola",-5.4883,134.592
380,"Lamaholot Ile Mandiri (Flores Timur)",-8.35825787130869,122.821655273438
381,"Lamalera (lembata)",-8.53225,123.4422
382,"Lamboya",-9.72530012795391,119.371948242188
383,"Letinese",-8.2,127.67
384,"Lio, Flores Tongah",-8.67606354930773,121.835632324219
385,"Luang",-8.47753873121983,128.63972166572
386,"Mambai",-8.57966283377484,125.619226658682
387,"Mamboru",-9.40571004160002,119.6630859375
388,"Manggarai",-8.53756535080402,120.5859375
389,"Masiwang",-3.49871005693759,130.624210207743
390,"Murnaten (Alune)",-3.0555,128.39172
391,"Nage",-8.70513,121.30956
392,"Naueti",-8.7073,126.741
393,"Ngadha",-8.87421700905355,121.014404296875
394,"Ngaibor (S.Aru)",2.30925,128.15277
395,"Nila",-6.74644,129.50134
396,"North Babar",-8.07258086134465,128.463215743173
397,"Palu'e (Nitung)",-8.32877,121.71811
398,"Paulohi",-3.25,128.75
399,"Perai",-7.73757892412019,126.447261797582
400,"Pulau (Arguni)",-2.66787,132.54182
401,"Roma",-7.56399200553307,127.41943359375
402,"Roti (Termanu Dialect)",-10.779348472547,123.173217773438
403,"Savu",-10.6198362605868,121.880877159067
404,"Savu (1773)",-10.6198362605868,121.880877159067
405,"Sekar",-2.98693,132.84668
406,"Selaru",-7.75345127326905,131.283317612191
407,"Serili",-8.28444635517256,129.917695058198
408,"Serua",-6.3153,130.01495
409,"Sika",-8.66791800236312,122.3876953125
410,"So'a",-8.67877869236305,121.206665039062
411,"Soboyo",-1.8234225,124.62890625
412,"Sou Amana Teru",-3.57785,128.31046
413,"South-East Babar",-8.07258086134465,128.463215743173
414,"Tarangan Barat (Feruni)",-6.5,134.166667
415,"Tela-Masbuar",-8.28444635517256,129.917695058198
416,"Tetun Fehan",-9.1122,125.528
417,"Tetun Terik (Fehan dialect)",-9,126
418,"Teun",-6.97687,129.14154
419,"Tokodede",-8.6788,125.283
420,"Tugun",-7.71099165543322,126.771240234375
421,"Ujir (N.Aru)",2.39432,128.15826
422,"Ujir (Schapper)",-5.6933,134.257
423,"Waima'a",-8.5342,126.317
424,"Wanukaka",-9.73071430575694,119.443359375
425,"Watubela",-4.59833,131.69861
426,"Werinama",-3.32699,129.95178
427,"West Damar",-8.07258086134465,128.463215743173
428,"Wetan",-8.1838,127.944
429,"Wewewa (Tana Righu dialect)",-9.57908433588252,119.234619140625
430,"Yamdena",-7.75345127326905,131.283317612191
431,"Ambai (Yapen)",-1.83,136.5
432,"As",-0.79099,131.69312
433,"Biga (Misool)",-1.86735,130.12207
434,"Buli",0.792831872729578,128.342370876875
435,"East Makian",0.0734,127.423
436,"Gimán",-0.14316066226984,128.487258649535
437,"Irarutu",-2.9444,133.586
438,"Kasira (Irahutu)",-2.71661564894275,133.617494709733
439,"Minyaifuin (Gebe)",-0.06042,129.39697
440,"Moor",-2.8706,135.95
441,"Mor",-3,135.75
442,"Numfor",-1.263843131735,134.757810767095
443,"Roon",-2.4301,134.556
444,"Taba",0.0734,127.423
445,"Waropen",-2.33,136.58
446,"Windesi Wandamen",-2.22341053473621,134.265241471163
447,"'Auhelawa",-10.0959,151.002
448,"'Auhelawa",-10.2824913015242,151.01806640625
449,"'Oyaoya",-10.5392,150.658
450,"Anuki",-9.6692,149.822
451,"Buhutu",-10.5074,150.18
452,"Bunama",-10.0761,151.066
453,"Bwaidoga",-9.5116,150.297
454,"Bwaidoga",-9.47073567413093,150.303955078125
455,"Dawawa",-10.1692,149.999
456,"Diodio",-9.39487,150.16113
457,"Dobu",-9.6324,150.825
458,"Dobuan",-9.78485125075059,150.79833984375
459,"Doura",-9.10008,146.98836
460,"Gabadi",-9.03389,146.9919
461,"Gapapaiwa",-9.7332,149.854
462,"Gapapaiwa",-9.75237013917329,149.87548828125
463,"Ghayavi",-10.011,149.84
464,"Gumawana",-9.285,150.762
465,"Gumawana",-9.25,150.833333
466,"Hula",-9.9943,147.705
467,"Iamalele",-9.45,150.573
468,"Iduna",-9.3436,150.24
469,"Keapara (Kalo Dialect)",-10.0467,147.7902
470,"Keapara (Keapara/Kerepunu Dialect)",-10.0999,147.8634
471,"Kilivila",-8.7257,151.072
472,"Kilivila",-8.48323856391351,151.06201171875
473,"Koluwawa",-9.4274,150.462
474,"Kuni",-8.66368,146.87435
475,"Lala",-8.932,146.749
476,"Lala",-8.92,146.75
477,"Magori (South East Papua)",-10.2392488109812,149.30419921875
478,"Maisin",-9.2285,148.731
479,"Maisin",-9.17802457457837,148.809814453125
480,"Mekeo",-8.33,146.5
481,"Mekeo, East",-8.2385,146.586
482,"Mekeo, North-West",-8.2385,146.586
483,"Minaveha",-9.5992,150.501
484,"Misima",-10.6821,152.696
485,"Misima",-10.68215,152.69631
486,"Molima",-9.5746,150.614
487,"Molima",-9.57908433588252,150.64453125
488,"Motu",-9.6749,147.424
489,"Motu",-9.42738661503235,147.161865234375
490,"Muyuw",-9.195,152.731
491,"Muyuw",-9.17802457457837,152.8857421875
492,"Nimoa",-11.22974,153.1584
493,"Roro",-8.6715,146.544
494,"Roro",-8.75,146.58
495,"Saliba",-10.6148,150.727
496,"Saliba",-10.58,150.72
497,"Sewa",-10.0277,150.956
498,"Sewa",-10.02772,150.95608
499,"Sinaugoro (Balawaia Dialect)",-9.7979,147.861
500,"Sinaugoro (Saroa Dialect)",-9.7979,147.861
501,"Suau",-10.6606,150.21
502,"Suau",-10.7604610553486,150.383605957031
503,"Sudest",-11.5229,153.488
504,"Sudest",-11.52292,153.48807
505,"Tawala",-10.3115,150.644
506,"Tawala",-10.3115,150.64383
507,"Tubetube",-10.6599,151.034
508,"Ubir",-8.62273552315168,149.827019548963
509,"Vilirupu",-9.83,147.83
510,"Wedau",-10.1246,150.172
511,"Wedau",-10.17,150.17
512,"Akolet",-6.2271,150.182
513,"Ali",-3.28761,142.65902
514,"Amara",-5.52851052569279,148.677978515625
515,"Aria",-5.64878567984731,149.23828125
516,"Arop",-3.0698,142.12
517,"Avau",-6.2434,150.427
518,"Bariai",-5.5087,148.666
519,"Bebeli",-5.6328,150.323
520,"Biliau",-5.599,146.355
521,"Biliau",-5.59896,146.35521
522,"Bilibil",-5.83022199781699,146.45411492278
523,"Gedaged",-5.1237722999488,145.78857421875
524,"Gitua",-6.0151,147.485
525,"Ham",-5.349,145.59
526,"Hote (Misim dialect)",-7.0771,146.869
527,"Kairiru",-3.35440535760295,143.563842773438
528,"Kaulong (Au Village)",-6.18424616128059,149.677734375
529,"Kayupulau [Kajupulau]",-2.54415,140.62585
530,"Kis",-3.78204052821105,143.915405273438
531,"Kove",-5.47383188919279,148.9306640625
532,"Lamogai (Mulakaino)",-5.87071,149.32055
533,"Malalamai",-5.7749,146.642
534,"Malasanga",-5.9401,147.058
535,"Maleu",-5.72,148.42
536,"Manam",-4,145
537,"Mangap-Mbula",-5.6696,148.041
538,"Mangseng",-5.8975,150.68
539,"Mato (Ramuk dialect)",-5.9164,146.859
540,"Matukar",-5.83022199781699,146.45411492278
541,"Megiar",-5.83022199781699,146.45411492278
542,"Mengen",-5.22224651322738,151.435546875
543,"Mindiri",-5.5461,146.138
544,"Mouk",-5.64878567984731,149.23828125
545,"Mumeng (Patep dialect)",-6.9199,146.639
546,"Mutu",-5.7941,148.014
547,"Nenaya",-5.9164,146.859
548,"Numbami (Siboma)",-7.0520339099331,147.779025415929
549,"Roinji",-5.8078,146.731
550,"Sengseng",-6.22793393026867,149.765625
551,"Si<U+014B>orakai",-5.9401,147.058
552,"Sio",-5.9604,147.353
553,"Sissano (Arop dialect)",-3.0198,142.049
554,"Sobei",-1.92,138.75
555,"Takia",-4.6906,145.975
556,"Takia",-4.69057,145.97454
557,"Tami",-6.7002,147.732
558,"Tarpia",-2.38121,139.97465
559,"Wab",-5.6122,146.461
560,"Wampar",-6.66733557666654,147.513427734375
561,"Wogeo",-3.2024,144.089
562,"Wogeo",-3.22827101125264,144.102172851562
563,"Yabem",-7.0520339099331,147.779025415929
564,"Andra",-2.0589,147.085
565,"Awa",-1.7394,142.851
566,"Baluan",-2.5604,147.282
567,"Bipi",-2.1111,146.398
568,"Bujan",-2.0916,147.064
569,"Hus",-2.0589,147.085
570,"Jiriw",-2.1427,147.202
571,"Kaniet",-1.5178,145.086
572,"Lebei",-2.0663,146.746
573,"Leipon",-1.96891169260428,147.329406738281
574,"Levei",-2.07596,146.65375
575,"Likum",-2.43060571171546,147.416152188836
576,"Loniu",-2.07321686972869,147.332153320312
577,"Lou",-2.39432235753508,147.354125976562
578,"Lup",-1.5289,145.075
579,"Mbunai",-2.1817,146.888
580,"Mokaren",-2.016,147.423
581,"Nauna",-2.21319453229342,148.200073242188
582,"Ninigo",-1.5297,145.074
583,"Njada",-2.1143,146.627
584,"Nyindrou",-2.1143,146.627
585,"Pak",-2.0527,147.767
586,"Papitalai",-2.0622,147.417
587,"Pitilu",-1.9665,147.226
588,"Ponam",-1.917,146.887
589,"Seimat",-1.38963424765552,144.574584960938
590,"Sivisa Titan",-2.18168,146.88795
591,"Sori",-1.9838,146.642
592,"Tulu",-2.1416,146.934
593,"Wuvulu",-1.60379443005897,142.97607421875
594,"Aneityum",-20.1864,169.825
595,"Anejom (Aneityum)",-20.1900350958226,169.82666015625
596,"Dehu",-20.9819567428323,167.2119140625
597,"Enfitena",-19.5795,169.356
598,"Fijian (Bau)",-17.8114560885645,177.978515625
599,"Fijian (Suva Dialect)",-16.55711,179.24208
600,"Iaai",-20.65335,166.56647
601,"Iai",-20.6301,166.59
602,"Ikiti",-19.5795,169.356
603,"Ikiyau",-19.5795,169.356
604,"Imreang",-19.5795,169.356
605,"Kwamera",-19.5162550257512,169.462500377383
606,"Kwamera (Isiai)",-19.5954,169.442
607,"Kwamera (Port Resolution)",-19.5954,169.442
608,"Kwamera (Yatukwey)",-19.5954,169.442
609,"Lapwangtoai",-19.5795,169.356
610,"Lenakel",-19.4763,169.261
611,"Lenakel",-19.4665922322076,169.238891601562
612,"Lenakel (Lenaukas)",-19.4763,169.261
613,"Lenakel (Lonasilian)",-19.4763,169.261
614,"nDe’u",-20.8892,167.229
615,"Ne<U+014B>one",-21.5305,167.964
616,"Nengone",-21.5348470020488,167.98095703125
617,"Rotuman",-12.7863633858312,177.138087277041
618,"Sie",-18.8181,169.166
619,"Sye (Erromangan)",-18.9492577635907,169.61731364078
620,"Tanna, North",-19.3733,169.303
621,"Tanna, Southwest",-19.5804934792025,169.354248046875
622,"Ura",-18.6747,169.084
623,"Ura",-18.9492577635907,169.61731364078
624,"Western Fijian (Navosa)",-17,177.3
625,"Whitesands (Iarkei)",-19.5019,169.381
626,"Whitesands (Loniel)",-19.5019,169.381
627,"'Are'are (Ma'asupa Village)",-9.25,161.166667
628,"'Are'are (Waiahaa Village)",-9.25,161.166667
629,"Arosi",-10.25,161.333333
630,"Arosi (Oneibia Village)",-10.25,161.333333
631,"Arosi (Tawatana Village)",-10.25,161.333333
632,"Bauro (Baroo Village)",-10.58257,161.86319
633,"Bauro (Haununu)",-10.58257,161.86319
634,"Bauro (Pawa Village)",-10.58257,161.86319
635,"Bughotu",-8.49410453755188,159.80712890625
636,"Dori'o",-9.11536,160.89663
637,"Fagani",-10.44791,161.6618
638,"Fagani (Agufi)",-10.44791,161.6618
639,"Fagani (Rihu'a)",-10.44791,161.6618
640,"Fataleka",-8.59041,160.86142
641,"Ghari",-9.36235282205559,159.697265625
642,"Ghari (Ndi)",-9.4791,159.91736
643,"Ghari (Nggae)",-9.4791,159.91736
644,"Ghari (Nggeri)",-9.4791,159.91736
645,"Ghari (Nginia)",-9.4791,159.91736
646,"Ghari (Tandai)",-9.4791,159.91736
647,"Kahua",-10.69634,162.19059
648,"Kahua (Mami)",-10.69634,162.19059
649,"Kwai",-8.74742,161.02303
650,"Kwaio",-9.05870215639213,161.0595703125
651,"Kwara'ae (Solomon Islands')",-8.68963906812765,160.77392578125
652,"Langalanga",-8.81936,160.74125
653,"Lau",-7.8960295932731,160.6201171875
654,"Lau (North)",-9.583333,161.5
655,"Lau (Walade)",-9.583333,161.5
656,"Lengo",-9.56425,160.42011
657,"Lengo (Ghaimuta)",-9.56425,160.42011
658,"Lengo (Paripao)",-9.56425,160.42011
659,"Longgu",-9.75,160.666667
660,"Malango",-9.61383,160.11784
661,"Marau (Guadalcanal)",-9.20699,161.158
662,"Mbaelelea",-8.41627,160.72097
663,"Mbaengguu",-8.49014,160.77123
664,"Mbirao",-9.73716,160.52035
665,"Mbughotu (Dhadhaje)",-8.47948,159.80177
666,"Nggela",-9.08,160.25
667,"Oroha",-9.7386,161.51281
668,"Rawo",-2.833333,141.583333
669,"Sa'a",-9.79567758282973,161.982421875
670,"Sa'a (A'ulu Village)",-9.616667,161.45
671,"Sa'a (Sa'a Village)",-9.616667,161.45
672,"Sa'a (Uki Ni Masi)",-9.616667,161.45
673,"Sa'a (Ulawa)",-9.616667,161.45
674,"Santa Ana",-10.83651,162.46754
675,"Santa Catalina",-10.82553,162.30467
676,"Talise",-9.76764,160.231
677,"Talise (Koo)",-9.76764,160.231
678,"Talise (Malagheti)",-9.76764,160.231
679,"Talise (Moli)",-9.76764,160.231
680,"Talise (Poleo)",-9.76764,160.231
681,"Tawaroga",-10.69634,162.19059
682,"To'ambaita",-9.8264092523997,161.896610150297
683,"Tolo",-9.8264092523997,161.896610150297
684,"Babatana",-7.18810087117902,157.08251953125
685,"Babatana (Avasö)",-7,156.833333
686,"Babatana (Katazi)",-7,156.833333
687,"Babatana (Lömaumbi)",-7,156.833333
688,"Babatana (Tunöe)",-7,156.833333
689,"Bali-Vitu",-4.8938,149.141
690,"Banoni",-6.51181470634789,155.28076171875
691,"Barok",-4.04342622844082,152.266393626474
692,"Bilur",-4.48552557451467,153.408911795637
693,"Blablanga",-8.15058,159.41863
694,"Blablanga (Ghove)",-8.15058,159.41863
695,"Bola",-5.5579,150.095
696,"Bulu",-5.0613,150.101
697,"Cheke Holo",-8.29847029706735,159.6533203125
698,"East Kara (Lemakot)",-2.8196,151.111
699,"Ghanongga",-8.02035,156.55189
700,"Haku",-5.06832,154.59388
701,"Halia (Selau)",-5.26603,154.66185
702,"Hoava",-8.11361508149333,157.56591796875
703,"Kandas",-4.04342622844082,152.266393626474
704,"Kara (West)",-2.83,151.12
705,"Kazukuru",-8.23886,157.6873
706,"Kilokaka (Ysabel)",-8.20605,159.32922
707,"Kokota",-8,159.13
708,"Kubokota",-8.02035,156.55189
709,"Kusaghe",-8.04056,157.46268
710,"Label",-4.4697,152.678
711,"Laghu (Samasodu)",-8.00509,158.96112
712,"Lakalai",-5,151
713,"Lihir (Sunglik)",-3.18895,152.60632
714,"Lunga Lunga  (Minigir)",-4.21357,152.01027
715,"Lungga",-8.17469,156.57264
716,"Luqa",-8.17469,156.57264
717,"Madak",-4.04342622844082,152.266393626474
718,"Madak (Lamasong Dial.)",-4.04342622844082,152.266393626474
719,"Madara",-2.64128,151.97937
720,"Maringe (Kmagha)",-8.533333,159.866667
721,"Maringe (Leleghia)",-8.433333,159.766667
722,"Maringe (Tataba)",-8.333333,159.66667
723,"Marovo",-8.78193952103597,158.186645507812
724,"Maututu",-5.58,150.58
725,"Mbareke",-8.66826,157.99717
726,"Meramera",-4.9747,151.528
727,"Mono",-7.05,155.75
728,"Mono (Alu)",-7.05,155.75
729,"Mono (Fauro)",-7.05,155.75
730,"Nakanai (Bileki Dialect)",-5.50663967435489,150.46875
731,"Nalik",-3.72492858395654,152.118582078314
732,"Nalik",-3.72492858395654,152.118582078314
733,"Nduke",-7.97768,157.06392
734,"Nehan",-4.59088225038226,154.206597633045
735,"Nehan Hape",-4.48607103437042,154.215087890625
736,"Nggao (Poro)",-8.35163,159.78866
737,"Nissan",-4.59088225038226,154.206597633045
738,"Patpatar",-3.71078200434872,152.4462890625
739,"Piva",-6.152,155.129
740,"Ramoaaina",-4.1731,152.451
741,"Ririo",-6.88280024176756,156.86279296875
742,"Roviana",-8.25498270487786,157.32421875
743,"Sengga",-7,156.833333
744,"Siar",-4.04342622844082,152.266393626474
745,"Simbo",-8.26925,156.53732
746,"Sisingga",-7.25622,157.22809
747,"Solos",-4.88450498829041,154.480658485549
748,"Sursurunga",-3.9908,152.768
749,"Tabar",-3.28697764528902,151.651036159741
750,"Taiof",-5.74325805829892,155.178353833599
751,"Tangga",-3.46955730306146,153.226318359375
752,"Teop",-5.72705323593056,155.030100110907
753,"Tiang",-3.2115170197835,151.090990842961
754,"Tigak",-2.64676323074096,150.611572265625
755,"Tolai",-4.25,152.08
756,"Torau",-5.89078468421825,155.211915129668
757,"Tungag / Tungak / Lavongai",-2.55,150.25
758,"Ughele",-8.45725,157.3407
759,"Uruava",-6.23314,155.57304
760,"Vaghua",-6.67551952902459,156.46728515625
761,"Vangunu",-8.66826,157.99717
762,"Varisi",-6.81735282262214,156.55517578125
763,"Varisi (Ghone)",-6.83443,156.65519
764,"Vitu",-4.85071989271819,150.005982471755
765,"Zabana (Kia)",-7.77630850377619,158.79638671875
766,"Äiwoo",-10.25276,166.19568
767,"Asumboa",-11.24845,166.47583
768,"Buma",-11.63,166.83
769,"Lwepe, Santa Cruz",-10.6849,165.73425
770,"Malo, Santa Cruz",-10.49591,165.74249
771,"Nanggu",-10.71459,165.92651
772,"Nembao",-11.27,166.45111
773,"Tanema",-11.67645,166.82602
774,"Tanimbili",-11.2902,166.52664
775,"Teanu",-11.6361,166.89331
776,"Vano",-11.66972,166.87683
777,"‘Aragùr<U+025B>",-21.8223,166.376
778,"’Aek<U+025B>",-21.0735,164.869
779,"’Avek<U+025B>",-21.0249,164.753
780,"<U+0272>ua",-20.5664,164.51
781,"<U+029D>alasu",-20.25,164.2
782,"<U+02B0>Moaek<U+025B>",-20.7708,165.04
783,"<U+02B0>Moavek<U+025B>",-20.9246,164.768
784,"<U+1D50>Belep",-19.72,163.66
785,"<U+1D50>Boewe",-21.6269,165.473
786,"<U+1D50>Bonnde",-20.5664,164.51
787,"Ajiø",-21.3029,165.468
788,"Anesù",-21.7034,165.996
789,"Ar<U+0283>a",-21.2866,165.273
790,"Aro",-21.3183,165.161
791,"camuki",-20.8489,165.13
792,"Canala",-21.67,166
793,"Ciri",-21.8147,165.792
794,"Drubea",-22.0947,166.531
795,"Houaïlou",-21.3029,165.468
796,"Jawe",-20.6648,164.676
797,"Jawe",-20.6430655467265,164.77294921875
798,"Kapone",-22.2689,166.705
799,"Koumac",-20.4035,164.193
800,"Moene<U+1D50>be<U+014B>",-20.4114,164.578
801,"N<U+025B>mi",-20.6791,164.797
802,"nDu<U+1D50>bea",-22.0947,166.531
803,"Neku",-21.6524,165.578
804,"Nêlêmwa",-20.25,164.08
805,"Nenema",-20.4035,164.193
806,"Nyelâyu",-19.72,163.66
807,"Nyelâyu (Belep Dialect)",-19.72,163.66
808,"Pat<U+032A>i",-21.096,165.15
809,"Pinje",-20.7824,164.942
810,"Poai",-20.6873,164.901
811,"Poamei",-20.8442,164.77
812,"Poapoã",-20.8133,164.556
813,"Sirehë",-21.6544,165.482
814,"Wamoa<U+014B>",-20.5014,164.409
815,"Carolinian",15,146
816,"Chuukese",7.57584198321025,151.961399557619
817,"Chuukese",7.57584198321025,151.961399557619
818,"Kiribati",-1.09129174695414,172.110425708816
819,"Kusaie",5.3,163
820,"Marshallese",7.87763837400782,171.596844971193
821,"Marshallese (E. Dialect)",7.87763837400782,171.596844971193
822,"Mokilese",5.82747701360214,161.719829148869
823,"Mortlockese",6.53199183495729,155.769306852686
824,"Mortlockese (Lukunosh)",5.5073,153.7108
825,"Nauru",-1.11153781957284,166.528582279545
826,"Pingilapese",6.216667,160.7
827,"Pingilapese",6.216667,160.7
828,"Ponapean",5.63347995011737,159.008384518223
829,"Pulo-Annan",4.72352468172097,132.098595397709
830,"Pulo Anna",4.72352468172097,132.098595397709
831,"Puluwatese",7.33,149.33
832,"Saipan Carolinian",15.3384618054491,147.358840425045
833,"Saipan Carolinian Tanapag",15.4437558996518,146.562665448462
834,"Satawalese",7.9621864319533,146.25381429925
835,"Sonsorolese",5.333333,132.25
836,"Ulithian",9.9614,139.6036
837,"Woleai",7.9621864319533,146.25381429925
838,"Woleaian",7.9621864319533,146.25381429925
839,"Avava",-16.24368,167.47009
840,"Avava (Banga<U+02D0>sak)",-16.2701,167.484
841,"Avava (Khatbol)",-16.2701,167.484
842,"Avava (Timbibi)",-16.2701,167.484
843,"Avava (Tisvel)",-16.2701,167.484
844,"Butmas-Tur (Butmas)",-15.3353,167.034
845,"Butmas-Tur (Tur)",-15.3353,167.034
846,"Dixon Reef",-16.3267,167.516
847,"Dixon Reef",-16.3267,167.516
848,"Fifti (Khatbol)",-16.2701,167.484
849,"Katbol",-16.2701,167.484
850,"Labo (Ninde)",-16.4291,167.442
851,"Labo (Windua)",-16.4291,167.442
852,"Larevat",-16.1971,167.387
853,"Letemboi",-16.4339,167.566
854,"Letemboi (Aingelemolesa)",-16.4339,167.566
855,"Letemboi (Natingatlang North)",-16.4339,167.566
856,"Letemboi (Nevatanyene)",-16.4339,167.566
857,"Letemboi (Newotenyene)",-16.4339,167.566
858,"Litzlitz",-16.1331,167.415
859,"Lorediakarkar",-15.3348,167.1663
860,"Maragus",-16.0695,167.33
861,"Maraxus",-16.0695,167.33
862,"Na:ti (Windua)",-16.4687,167.4961
863,"Naman",-16.13818,167.45087
864,"Naman (Litzlitz)",-16.1331,167.415
865,"Nasarian (Wileven tu)",-16.3497,167.414
866,"Nasvang (Farun - children) 162-96",-16.4582,167.6396
867,"Nasvang (Farun) 162-90",-16.4582,167.6396
868,"Nasvang (Farun) 162-93",-16.4582,167.6396
869,"Nasvang (Farun) 162-95a",-16.4582,167.6396
870,"Natangan (Farun) 162-95b",-16.4339,167.566
871,"Natangan (Mbonvor) 162-86",-16.4339,167.566
872,"Neve'ei",-16.2253,167.427
873,"Neve'ei",-16.2305,167.40967
874,"Neve'ei (Vinmavis)",-16.2253,167.427
875,"Neve'ei (Vinmavis)",-16.2253,167.427
876,"Neverver",-16.1986,167.499
877,"Neverver (Lingarak - Mindu)",-16.1986,167.499
878,"Neverver (Lingarak - Sakan)",-16.1986,167.499
879,"Ninde (Labo)",-16.4291,167.442
880,"Ninde (Lawa)",-16.4291,167.442
881,"Ninde (Lorlo)",-16.4291,167.442
882,"Ninde (Opmomba)",-16.4291,167.442
883,"Ninde (Windua)",-16.4291,167.442
884,"Nisvai (Blacksands)",-16.4131,167.7856
885,"Nitita (Khatbol)",-16.2701,167.484
886,"Nombotkote (Blacksands)",-16.4339,167.566
887,"Nombotkote (Melaklak (Melkin))",-16.4339,167.566
888,"Nombotkote (Usus - Melkin)",-16.4339,167.566
889,"Novol (Melaklak)",-16.4339,167.566
890,"Novol (Usus - Dixon Reef)",-16.4339,167.566
891,"Novol (Usus - Dixon Reef)",-16.4339,167.566
892,"Novol (Usus - Dixon Reef)",-16.4339,167.566
893,"Polonombauk",-15.2553,167.1389
894,"Repanbitipmbangir",-16.3265,167.619
895,"Sakao",-15.0757,167.051
896,"Sakao (Port-Olry)",-15.077427674848,167.019653320312
897,"Salang (Dixon Reef)",-16.2701,167.484
898,"Shark Bay",-15.2553,167.1389
899,"Shark Bay",-15.2553,167.1389
900,"Tape",-16.05109,167.25037
901,"Tape (Tautu)",-16.0695,167.33
902,"Timbembe",-16.2701,167.484
903,"V'ënen Taut (Leviamp)",-16.0903,167.239
904,"V'ënen Taut (Unmet)",-16.0903,167.239
905,"Venen Taute (Alpalak)",-16.0903,167.239
906,"Venen Taute (Hamax)",-16.0903,167.239
907,"Venen Taute (Unmet)",-16.0903,167.239
908,"Akei",-15.6377,166.767
909,"Akei (Penantsiro)",-15.6377,166.767
910,"Akei (Tasiriki)",-15.6377,166.767
911,"Amblong",-15.5169,166.95
912,"Aore",-15.5753,167.166
913,"Araki",-15.633,166.9525
914,"Araki (Southwest Santo)",-15.67,166.92
915,"Baki",-16.7096,168.165
916,"Bierebo (Bonkovia)",-16.6663,168.154
917,"Bierebo (Burupika)",-16.6663,168.154
918,"Bierebo (Tavio)",-16.6663,168.154
919,"Bierebo (Yevali)",-16.6663,168.154
920,"Bieria (Vowa)",-16.7867,168.232
921,"Efate, North (Nguna)",-17.5774,168.375
922,"Efate, North (Pwele)",-17.5774,168.375
923,"Efate, North (Sesake)",-17.5774,168.375
924,"Efate, North (Siviri)",-17.5774,168.375
925,"Efate, North (Woraviu)",-17.5774,168.375
926,"Efate, South (Eratap)",-17.7006,168.377
927,"Eton",-17.74,168.549
928,"Fortsenal",-15.4484,166.931
929,"Lamenu",-16.6098,168.171
930,"Lamenu (Filakara)",-16.6098,168.171
931,"Lamenu (Mapremo)",-16.6098,168.171
932,"Lamenu (Mate)",-16.6098,168.171
933,"Lamenu (Nikaura)",-16.6098,168.171
934,"Lamenu (Nul)",-16.6098,168.171
935,"Lamenu (Nuvi)",-16.6098,168.171
936,"Lamenu (Visina)",-16.6098,168.171
937,"Lelepa",-17.6042,168.202
938,"Lelepa",-17.6042,168.202
939,"Lelepa (Pango)",-17.6042,168.202
940,"Mafea",-15.4316,167.241
941,"Maii",-16.7388,168.211
942,"Malo (North)",-15.6835,167.16
943,"Malo (South)",-15.6835,167.16
944,"Merei",-15.2839,166.905
945,"Merei",-15.33187,166.8988
946,"Morouas",-15.3498,166.891
947,"Morouas (Batunlamak)",-15.3498,166.891
948,"Namakir",-17.0967026510254,168.727337973694
949,"Namakura (Bongabonga)",-16.8979,168.569
950,"Namakura (Makura)",-16.8979,168.569
951,"Namakura (Mataso)",-16.8979,168.569
952,"Namakura (Tongariki)",-16.8979,168.569
953,"Narango",-15.5259,167.047
954,"Narango (Nambel)",-15.5259,167.047
955,"Navut",-15.3169,166.798
956,"Navut (Matae)",-15.3169,166.798
957,"Nguna",-17.4397629500525,168.379618175383
958,"Nokuku",-14.8974,166.603
959,"Piamatsina",-14.9959,166.738
960,"Roria",-15.4048,166.843
961,"South Efate",-17.7486866517288,168.491821289062
962,"Tambotalo",-15.5004,167.139
963,"Tangoa",-15.5643,166.958
964,"Tasmate",-15.0792,166.664
965,"Tiale",-15.2334,166.842
966,"Tolomako",-15.1569,166.772
967,"Tutuba",-15.4913,167.218
968,"Valpei",-14.712,166.606
969,"Valpei (Hukua)",-14.712,166.606
970,"Vunapu",-14.8477,166.691
971,"Wailapa",-15.5656,166.902
972,"Wusi (Kerepua)",-15.2786,166.696
973,"Wusi (Mana)",-15.2786,166.696
974,"Wusi (Nonona)",-15.2786,166.696
975,"Wusi (Valui)",-15.2786,166.696
976,"Ambae, East (Lolomatui)",-15.3523,167.89
977,"Ambae, East (Lolsiwoi)",-15.3523,167.89
978,"Ambae, East (Wailengi)",-15.3523,167.89
979,"Ambae, West (Ngwatua)",-15.4281,167.807
980,"Ambrym, North (Fonah)",-16.1741,168.14
981,"Ambrym, North (Ranon)",-16.1741,168.14
982,"Ambrym, South-East",-16.3095955177422,168.255615234375
983,"Ambrym, Southeast (Maat)",-16.2975,168.211
984,"Ambrym, Southeast (Toak)",-16.2975,168.211
985,"Apma",-15.8559,168.189
986,"Apma (Suru Kavian)",-15.85593,168.18897
987,"Apma (Suru Mwerani)",-15.85593,168.18897
988,"Baetora",-15.2574,168.159
989,"Baetora (Narovorovo)",-15.2574,168.159
990,"Baetora (Nasawa)",-15.2574,168.159
991,"Baetora (Navenevene)",-15.2574,168.159
992,"Baetora (Tam)",-15.2574,168.159
993,"Daakaka (Baiap)",-16.2696,168.013
994,"Daakaka (Sesivi)",-16.2696,168.013
995,"Dorig",-14.2916,167.55
996,"Hiw",-13.1391,166.556
997,"Hiw",-13.13907,166.55592
998,"Koro",-14.2943,167.467
999,"Lakona",-14.213,167.472
1000,"Lehali",-13.5043,167.332
1001,"Lemerig (Bek)",-13.7427,167.436
1002,"Lemerig (Sasar)",-13.7427,167.436
1003,"Lonwolwol",-16.2286,168.016
1004,"Löyöp",-13.5406,167.336
1005,"Maewo, Central (Peterara)",-15.0784,168.135
1006,"Marino",-14.9738,168.12
1007,"Mota",-13.8485,167.6949
1008,"Mota",-13.7247389269407,168.213678544669
1009,"Mwerlap (Merig)",-14.4213,168.039
1010,"Mwerlap (Merlav)",-14.4213,168.039
1011,"Mwotlap",-13.6535,167.673
1012,"Mwotlap",-13.4556689744198,167.907176579306
1013,"Nume",-14.209,167.562
1014,"Orkon",-16.24896,168.02765
1015,"Paama (Faulili)",-16.4755,168.2369
1016,"Paama (Laul)",-16.4755,168.2369
1017,"Paama (Lironesa)",-16.4755,168.2369
1018,"Paamese (South)",-16.5203659124421,168.338012695312
1019,"Peterara (Maewo)",-15.1251588785853,168.145751953125
1020,"Port Vato",-16.3083,168.046
1021,"Raga",-15.6248460642799,169.016196325761
1022,"Raga",-15.5432,168.167
1023,"Sa",-15.9534,168.228
1024,"Sa (south-eastern dialect)",-15.95342,168.22772
1025,"Seke",-15.8839,168.197
1026,"Ske (Seke)",-15.8839,168.19662
1027,"Sowa",-15.8265,168.1865
1028,"Sowa",-15.82653,168.18653
1029,"Toga",-13.252,166.613
1030,"Vera'a (Vatrata)",-13.8096,167.475
1031,"Vurës (Mosina)",-13.8746,167.516
1032,"Vurës (Vetumboso)",-13.8746,167.516
1033,"Wetamut",-14.2916,167.55
1034,"Aitchin (Orap)",-16.0095,167.3464
1035,"Aitchin (Small Island)",-16.0095,167.3464
1036,"Aulua",-16.3579,167.697
1037,"Aulua (Loxse Asolokh)",-16.3579,167.697
1038,"Aulua (Loxse Lanfitfit)",-16.3579,167.697
1039,"Aulua (Netimb)",-16.3579,167.697
1040,"Avok (Avok) 162-101",-16.4838,167.707
1041,"Avok (Avok) 162-99",-16.4838,167.707
1042,"Avok (Hokai) 162-97a",-16.4838,167.707
1043,"Avok (Hokai) 162-98",-16.4838,167.707
1044,"Avok (Shiaf)",-16.4838,167.707
1045,"Axamb",-16.4838,167.707
1046,"Axamb (Avok)",-16.4838,167.707
1047,"Axamb (Farun) 162-94",-16.4838,167.707
1048,"Axamb (Maxbaxo)",-16.4838,167.707
1049,"Axamb (Small Island-Brisbane) 162-89",-16.4838,167.707
1050,"Axamb (Small Island-Maliambur) 162-88",-16.4838,167.707
1051,"Banam Bay (Burmbar)",-16.4165,167.7312
1052,"Banam Bay (Lepaxsivir)",-16.4165,167.7312
1053,"Banam Bay (Vartavo)",-16.4165,167.7312
1054,"Burmbar",-16.4165,167.7312
1055,"Burmbar (Fartavo)",-16.4165,167.7312
1056,"Espiegel's Bay (Litebral)",-15.9813,167.208
1057,"Espiegels' Bay (Shore)",-15.9813,167.208
1058,"Mae",-15.9914,167.288
1059,"Mae (Orap)",-15.9914,167.288
1060,"Malua Bay",-15.9813,167.208
1061,"Malua Bay (Marasup)",-15.9813,167.208
1062,"Malua Bay (Petarmul 1)",-15.9813,167.208
1063,"Malua Bay (Petarmul 2)",-15.9813,167.208
1064,"Malua Bay (Petarmur)",-15.9813,167.208
1065,"Malua Bay (TipTir)",-15.9813,167.208
1066,"Maskelynes",-16.5073,167.818
1067,"Mpotovoro",-15.8988,167.232
1068,"Na'ahai (Mbatambang) 162-83",-16.5499,167.509
1069,"Na'ahai (Mbatvanui) 162-85",-16.5499,167.509
1070,"Na'ahai (Toman Island) 162-82",-16.5499,167.509
1071,"Na'axai (Malfaxal) 162-84",-16.5499,167.509
1072,"Naha'ai",-16.5499,167.509
1073,"Nahavaq",-16.4993,167.45361
1074,"Nahavaq (Benour)",-16.5116,167.477
1075,"Nahavaq (Benour)",-16.5116,167.477
1076,"Nahavaq (Caroline Bay)",-16.5116,167.477
1077,"Nahavaq (Lembinwen)",-16.5116,167.477
1078,"Nahavaq (Lembinwin)",-16.5116,167.477
1079,"Nati",-16.45189,167.49756
1080,"Nese",-16.06165,167.18719
1081,"Pangkumu (Datisman)",-16.2934,167.651
1082,"Pangkumu (Ndarmif)",-16.2934,167.651
1083,"Port Sandwich",-16.4952,167.78
1084,"Port Sandwich (Lamap 1)",-16.4952,167.78
1085,"Port Sandwich (Lamap 2",-16.4952,167.78
1086,"Rano (Chinambong)",-16.0095,167.3464
1087,"Rano (Potora)",-16.0095,167.3464
1088,"Rano (Small Island)",-16.0095,167.3464
1089,"Rerep",-16.2934,167.651
1090,"Tirax (Bakru)",-15.9914,167.288
1091,"Tirax (Mae A)",-15.9914,167.288
1092,"Tirax (Mae B)",-15.9914,167.288
1093,"Tirax (Olamb)",-15.9914,167.288
1094,"Uliveo (Lurtes) 162-107",-16.5073,167.818
1095,"Uliveo (Palongk) 162-103",-16.5073,167.818
1096,"Uliveo (Palongk) 162-104",-16.5073,167.818
1097,"Uliveo (Pescaros) 162-106",-16.5073,167.818
1098,"Uliveo (Peskaros) 162-105",-16.5073,167.818
1099,"Unua",-16.2638,167.599
1100,"Unua (Mbatumbo)",-16.2638,167.599
1101,"Unua (Noferai)",-16.2638,167.599
1102,"Uripiv-Wala-Rano-Atchin (Atchin)",-16.0095,167.3464
1103,"Uripiv-Wala-Rano-Atchin (Pinalum)",-16.0095,167.3464
1104,"Uripiv-Wala-Rano-Atchin (Rano)",-16.0095,167.3464
1105,"Uripiv-Wala-Rano-Atchin (Tautu)",-16.0095,167.3464
1106,"Uripiv-Wala-Rano-Atchin (Uri)",-16.0095,167.3464
1107,"Uripiv-Wala-Rano-Atchin (Uripiv)",-16.0095,167.3464
1108,"Uripiv-Wala-Rano-Atchin (Wala)",-16.0095,167.3464
1109,"Uripiv (D'urpif 1)",-16.0095,167.3464
1110,"Uripiv (D'urpif 2",-16.0095,167.3464
1111,"Uripiv (Potnambwe)",-16.0095,167.3464
1112,"Vao",-15.8983,167.31
1113,"Vao (Beetehul)",-15.8983,167.31
1114,"Vao (Peteri)",-15.8983,167.31
1115,"Vao (Torono)",-15.8983,167.31
1116,"Wala (Botku)",-16.0095,167.3464
1117,"Wala (Worprev A)",-16.0095,167.3464
1118,"Wala (Worprev B)",-16.0095,167.3464
1119,"Anuta",-11.610833,169.850278
1120,"Bellona",-11.616667,160.25
1121,"Emae",-17.0967026510254,168.727337973694
1122,"Emae (Makatea)",-17.052,168.399
1123,"Fila",-17.6841,168.275
1124,"Futuna-Aniwa",-14.9867139802973,182.609520349045
1125,"Futuna-Aniwa (Aniwa)",-19.5303,170.215
1126,"Futuna-Aniwa (Futuna)",-19.5303,170.215
1127,"Futuna, East",-14.7243335869605,181.824223617191
1128,"Futuna, West",-19.5776494945719,169.812397597848
1129,"Hawaiian",19.5597901364974,204.521484375
1130,"Ifira-Mele (Mele-Fila)",-17.7329908495402,168.299560546875
1131,"Kapingamarangi",1.05,154.75
1132,"Luangiua",-5.1974121191344,159.654401499906
1133,"Mangaia",-21.23,200.22
1134,"Mangareva",-21.587940101105,223.618093170139
1135,"Manihiki",-10.4,199
1136,"Maori",-35.7465122599185,174.0234375
1137,"Maori (1773)",-35.0347799887453,172.808457286388
1138,"Marquesan",-9,220
1139,"Marquesan (Nukuhiva dialect)",-8.89412,219.89208
1140,"Mele",-17.6841,168.275
1141,"Nanumea",-7.4778,178.69192
1142,"Niuafo'ou",-15.60144,184.36009
1143,"Niue",-17.6564165732356,190.407799087696
1144,"Nuguria",-3.40038,154.73118
1145,"Nukeria",-3.33333,154.75
1146,"Nukuoro",3.83,154.92
1147,"Old Rapa (Rapa)",-27.6304,215.662
1148,"Penrhyn",-9,202
1149,"Pukapuka",-10.9247420638001,194.156172375576
1150,"Ra'ivavae",-23.3843,210.538
1151,"Rapa",-27.63043,215.66248
1152,"Rapanui (Easter Island)",-27.1178128423212,250.628356933594
1153,"Rarotongan",-21.2785312509184,200.253645026256
1154,"Rennellese",-11.0666978056568,160.785996159166
1155,"Rurutuan",-22.4032609605342,208.821145963949
1156,"Samoan",-14,190
1157,"Sikaiana",-8.38543101556771,162.740478515625
1158,"South Island Maori",-40,176
1159,"Tahiti (1773)",-17.6361413556613,210.585186748952
1160,"Tahitian (18th Century)",-17.6361413556613,210.585186748952
1161,"Tahitian (Modern)",-17.6361413556613,210.585186748952
1162,"Takuu",-4.75,157.033333
1163,"Tikopia",-13.3825991097862,168.991005186142
1164,"Tokelau",-8.95178497468883,188.463445097262
1165,"Tongan",-21.2305021019564,184.85595703125
1166,"Tuamotu",-18.5148393344629,219.399418063014
1167,"Tuvalu",-8.52941682451236,179.184265136719
1168,"Uvea, East",-13.362214926141,184.04105791863
1169,"Uvea, West",-20.6430655467265,166.563720703125
1170,"Vaeakau-Taumako",-10.22,166.22
1171,"A",4.43404,114.33472
1172,"Abaknon",12.41981,124.16679
1173,"Acehnese",3.90757,96.60325
1174,"Admiralty Islands",-2.00957066138638,146.537009021529
1175,"Aklan",11.5338521915105,122.36572265625
1176,"Amalumute",-3.07796030635209,128.283088067816
1177,"Amara",-5.52851052569279,148.677978515625
1178,"Ambon",-3.60809595824749,128.289581217161
1179,"Amis",23.2656410617637,121.333224604167
1180,"Aneityum",-20.1882175479113,169.825830078125
1181,"Anuki",-9.6692,149.822
1182,"Arawe",-6.0002,150.403
1183,"Arawe-Pasismanua",-6.06883001525821,150.175893229167
1184,"Are",-9.52982641558124,149.849126957553
1185,"Are-Taupota",-9.84845618470277,150.169704203357
1186,"Arta",16.4185,121.656
1187,"Aru",-3.58824714285714,132.678428142857
1188,"Astrolabe",-5.58576666666667,146.318
1189,"Ata-Tigwa",7.66925666666667,124.289703333333
1190,"Atayal",24.5270243064613,121.36175245
1191,"Atayalic",24.344854312701,121.392928767187
1192,"Babar",-8.17275042398686,129.648513072627
1193,"Bakati'",1.05463,109.42383
1194,"Baki-Bierebo",-16.67496,168.1562
1195,"Balangaw",17.17,121.17
1196,"Bali-Sasak-Sumbawa",-8.56910676396202,116.2813534375
1197,"Bali-Vitu",-4.8722599463591,149.573491235878
1198,"Banda-Geser",-4.5792100189792,131.779930069248
1199,"Banton",12.51942,122.03419
1200,"Bariai",-5.58581062973093,148.0795546875
1201,"Barito-Mahakam",-1.20840649727186,116.03759765625
1202,"Basay",24.1349018096479,121.885413133511
1203,"Bashiic",20.8108271714186,121.893179375837
1204,"Bel",-5.42735166303634,146.181788089735
1205,"Berawan",3.95194,114.64233
1206,"Berawan-Lower Baram",4.19299,114.488525
1207,"Biakic",-1.263843131735,134.757810767095
1208,"Bibling",-5.72276045323154,149.265704166667
1209,"Bidayuh",1.31824,110.34668
1210,"Bieria-Maii",-16.76275,168.2215
1211,"Bikol",13.425344,123.37844
1212,"Bilic",6.18372524958126,124.817334524554
1213,"Bima-Sumba",-9.44475792841152,120.450282403878
1214,"Bintulu",2.96882635733302,112.440793931919
1215,"Bisayan",9.67257245580362,125.235809643979
1216,"Blaan",6.02873320420004,125.18509090625
1217,"Bobot",-3.4128500284688,130.287995103872
1218,"Bontok",17.03731,121.01016
1219,"Bontok-Kankanay",16.9729785379336,120.935867643591
1220,"Borneo Coast Bajaw",-3.2020258747799,121.906215376953
1221,"Buang",-6.9199,146.639
1222,"Bughotu",-8.48679226877594,159.804449453125
1223,"Buhid-Taubuid",12.6396,121.21
1224,"Buka",-5.167175,154.627865
1225,"Bungku-Tolaki",-3.10180007091105,121.704193440755
1226,"Bunun",23.3384218096479,121.469583133511
1227,"Buru",-3.5,126.5
1228,"Butuan-Tausug",7.28710480334044,123.343405647186
1229,"Bwaidoga",-9.46898625125168,150.411952041016
1230,"C'uli'",24.5226710599103,121.340523942708
1231,"Cagayan Valley",17.5685990543009,121.629036440832
1232,"Cebuan",10.4337932431844,123.81591796875
1233,"Celebic",-3.12735082502697,121.812006216031
1234,"Cenderawasih Bay",-1.86667136664712,133.957121223826
1235,"Central",7.60793878324658,124.404456696429
1236,"Central",7.07848336490834,124.423729537662
1237,"Central",-20.97245,165.14
1238,"Central",-8.1268025,159.32412
1239,"Central",-19.2149340961142,204.956621138505
1240,"Central-Eastern Malayo-Polynesian",-11.2082495453787,157.842997268385
1241,"Central-Eastern Oceanic",-14.5907877408561,167.877705415807
1242,"Central-South",-2.34878701781515,114.85075347668
1243,"Central-Western",-2.1611701782454,135.107080490388
1244,"Central Cordilleran",17.1361662312194,121.141824422731
1245,"Central Luzon",15.2112298275254,120.511526604648
1246,"Central Malayo-Polynesian",-7.12719462405141,126.744768473807
1247,"Central Maluku",-3.48003345000075,129.260543465199
1248,"Central Pacific",-15.150293102973,184.616356808268
1249,"Central Papuan",-9.25191502242177,147.260540760691
1250,"Central Philippine",10.7120755311798,124.510026278088
1251,"Central Vanuatu",-17.4127618972239,168.428339849302
1252,"Central Western Plains",24.0914833333333,120.609808333333
1253,"Cham",11.6673548273132,107.272963506662
1254,"Chamic",11.9827912068283,106.818903376666
1255,"Choiseul",-6.96858395132667,156.819792585227
1256,"Chru-Northern",13.98224,108.949533333333
1257,"Coastal",11.6673548273132,107.272963506662
1258,"Coastal",13.66966,123.290855
1259,"Core",1.31824,110.34668
1260,"Danao",7.05784515038085,121.732345520833
1261,"Dayic",4.19813333333333,115.76032
1262,"Dobu-Duau",-9.90975425015012,150.92028396875
1263,"Dusun",5.95174,116.743163333333
1264,"Dusunic",5.95174,116.743163333333
1265,"East",-14.7029424855353,69.1522594336134
1266,"East",-3.59693662142942,129.788556370942
1267,"East",-6.17818337240114,127.754217842452
1268,"East",-2.06300916926043,147.107135673828
1269,"East",-3.44661797912374,128.56701060858
1270,"East",-8.50856985226292,159.115371227539
1271,"East",-19.6100780334246,207.24020792826
1272,"East Arawe",-6.03443333333333,150.310666666667
1273,"East Coast",-3.04184305848877,121.929001464844
1274,"East Damar",-8.07258086134465,128.463215743173
1275,"East Fijian",-17.1842830442822,178.6102978125
1276,"East Fijian-Polynesian",-15.15981574779,184.89033137011
1277,"East Formosan",23.8244663931665,121.497783593925
1278,"East Makian-Gane",0.00121311257672,127.777752883178
1279,"East Santo",-15.240553459356,167.090206665039
1280,"East Uvean-Niuafo'ou",-14.4818274630705,184.200573959315
1281,"East Vanuatu",-15.1031261081795,167.908739850561
1282,"Eastern",-3.27008743379459,121.858402893223
1283,"Eastern",3.2108972732006,123.417169278945
1284,"Eastern",-2.49596952014354,133.839521257027
1285,"Eastern Malayo-Polynesian",-11.7156239410031,161.709263550954
1286,"Ellicean",-4.02152999546827,161.828397572472
1287,"Elpaputi",-3.32028,128.93888
1288,"Ende-Lio",-8.73817551643591,121.598397441406
1289,"Epi",-16.6519133333333,168.1728
1290,"Erromanga",-18.8478288817954,169.37115682039
1291,"Extra-Ramelaic",-8.01038640520009,127.199291822963
1292,"Extreme Northern",-20.20112,164.1244
1293,"Extreme Southern",-22.1527666666667,166.589
1294,"Favorlang-Babuza",23.96642,120.640116666667
1295,"Flores-Lembata",-8.4800493862442,123.030740979687
1296,"Futunic",-15.8836908140353,169.332065008318
1297,"Gabadi",-9.03389,146.9919
1298,"Gaddangic",17.3750018433813,121.602174257812
1299,"Gela",-9.4431875,160.3775825
1300,"Gela-Guadalcanal",-9.47598933060036,160.204654734077
1301,"Geser-Gorom",-4.0485200284688,131.161410103872
1302,"Gorontalic",0.803647429242134,122.429561106771
1303,"Gorontalo-Mongondow",0.861989807441816,123.35298173057
1304,"Greater Barito",-3.35790577992743,111.30386532112
1305,"Greater Central Philippine",9.26919300430128,123.423357761564
1306,"Guadalcanal",-9.62667514817538,160.21241898395
1307,"Gumawana",-9.2675,150.7976665
1308,"Haekic",-21.0735,164.869
1309,"Halia",-5.167175,154.627865
1310,"Hanunoo",12.4423300724116,121.23305859375
1311,"Hatuhaha",-3.32028,128.93888
1312,"Highlands",13.72401,108.68041
1313,"Hmwaveke",-20.713,164.5885
1314,"Hote",-7.0771,146.869
1315,"Hote-Buang",-6.9985,146.754
1316,"Huon Gulf",-6.95368067930655,147.315895713247
1317,"Ibaloy",15.7064039651525,121.490874627891
1318,"Ibanagic",17.5248940400801,121.565681337891
1319,"Ibanic",0.527336304811517,112.7197265625
1320,"Ida'an",5.06906,118.25684
1321,"Ifugaw",16.8981626896678,120.959618217957
1322,"Ikiribati",-1.09129174695414,172.110425708816
1323,"Ilocano",17.6440220278727,121.11328125
1324,"Ilongot",17.0215281803367,121.114185950016
1325,"Inland",13.2624666666667,123.43683
1326,"Inner Sulu Sama",5.339195,120.387785
1327,"Interior",-2.310525,121.1275
1328,"Iriga",13.38959,123.3307
1329,"Isinai",16.3299,121.12
1330,"Isnag",17.9182391680679,122.13587726436
1331,"Itneg",17.9182391680679,122.13587726436
1332,"Ivatan",20.5045786831813,121.884156835069
1333,"Jayapura Bay",-2.54415,140.62585
1334,"Kaili-Pamona",-1.7271,120.399
1335,"Kairiru",-3.35440535760295,143.563842773438
1336,"Kairiru-Manam",-3.51342337941333,144.134084179688
1337,"Kajang",2.49037,114.67255
1338,"Kakabai",-10.1692,149.999
1339,"Kalamian",11.4475630345007,120.644042490729
1340,"Kalinga",17.4567425,121.2402725
1341,"Kalinga-Itneg",17.5490418336136,121.419393452872
1342,"Kallahan",16.6506342298893,120.982866072652
1343,"Kanakanabu",23.18375,120.7385
1344,"Kankanay",16.8764813448339,120.824429108978
1345,"Kavalan",24.8055407022995,121.725024960938
1346,"Kayan-Kenyah",2.72141386394452,113.7314745625
1347,"Kayan Proper",1.31824,111.70898
1348,"Kayanic",1.2508321598613,113.26492140625
1349,"Kei-Fordata",-6.63755326835154,131.990098764269
1350,"Kei-Tanimbar",-7.00951926999071,131.754505046909
1351,"Kelabitic",3.7972,115.64048
1352,"Kenyah",3.70180166666667,114.04251
1353,"Kilenge-Maleu",-5.72,148.42
1354,"Kilivila",-8.89549078462297,151.937688476562
1355,"Kilivila-Louisiades",-10.1357525709435,152.58639265625
1356,"Kinarayan",10.81307,122.2969
1357,"Kisar",-7.79529342401131,127.304077148438
1358,"Korap",-4.98333333333333,145.412
1359,"Kulisusu",-3.9562,122.631333333333
1360,"Kusaiean",5.3,163
1361,"Kuyan",11.29929,120.24364
1362,"Labo",-16.4291,167.442
1363,"Lamenu-Baki",-16.6348615384615,168.165307692308
1364,"Lamenu-Lewo",-16.6098,168.171
1365,"Land Dayak",1.186435,109.885255
1366,"Lavongai-Nalik",-3.01862717730469,151.300012158152
1367,"Longgu",-9.75,160.666667
1368,"Lower",-6.66733557666654,147.513427734375
1369,"Lower Baram",4.43404,114.33472
1370,"Loyalty Islands",-21.0366589574802,167.257056848958
1371,"Luang",-8.28711291040661,128.084573888573
1372,"Luang-Kisar",-8.09038511584849,127.772375192519
1373,"Madak",-4.04342622844082,152.266393626474
1374,"Magindanao",6.9453,124.50856
1375,"Magoric",-10.2392488109812,149.30419921875
1376,"Maisin",-9.20326228728919,148.770407226562
1377,"Malagasy",-21.0165669738492,46.04670078125
1378,"Malaita",-9.19428825695556,161.173544832116
1379,"Malaita-San Cristobal",-9.53243715278439,160.900547792069
1380,"Malay",-1.26741967006432,107.841287072478
1381,"Malayic",-0.685199899277996,107.597628410243
1382,"Malayo-Chamic",3.06827894697572,107.366895066961
1383,"Malekula Central",-16.1827189655172,167.398724137931
1384,"Malekula Coastal",-16.2449298823529,167.498665411765
1385,"Malekula Interior",-16.305112295082,167.476067213115
1386,"Mamanwa",9.18887,125.8374
1387,"Manam",-3.55317788486592,144.27664453125
1388,"Manobo",7.78036013479328,124.091198806818
1389,"Mansakan",7.09772,125.88649
1390,"Manus",-2.06124639400231,146.902162487973
1391,"Maranao-Iranon",7.11411772557127,120.34423828125
1392,"Markham",-6.66733557666654,147.513427734375
1393,"Marquesic",-4.9805674911519,217.007914386285
1394,"Marshallese",7.87763837400782,171.596844971193
1395,"Masela-South Babar",-8.2540918756856,129.587153698741
1396,"Masiwang",-3.3086450284688,130.570895103872
1397,"Melanau",2.5,111.5
1398,"Melanau-Kajang",2.495185,113.086275
1399,"Mengen",-5.22224651322738,151.435546875
1400,"Meso-Cordilleran",16.8742770098963,121.112466422364
1401,"Meso Melanesian",-6.02535098092675,154.941726553379
1402,"Micronesian",7.15326138795786,152.684481547185
1403,"Micronesian Proper",7.51260048393746,152.082564124039
1404,"Minahasan",1.3392003035903,124.807554140625
1405,"Misima",-10.682125,152.696155
1406,"Modang",1.249325,114.029845
1407,"Mokoreng-Loniu",-2.04460843486434,147.377576660156
1408,"Mongondowic",0.949503374741339,124.738112666268
1409,"Mono-Uruava",-6.65478493684365,155.606991025934
1410,"Mor",-2.9353,135.85
1411,"Muller-Schwaner ‘Punan'",1.1864386394452,113.291015625
1412,"Mumeng",-6.9199,146.639
1413,"Muna-Buton",-5.29137549240913,122.596913819819
1414,"Munan",-5.02494438828616,122.829238122306
1415,"Munic",-5.02494438828616,122.829238122306
1416,"Murut",5,116
1417,"Murutic",5,116
1418,"Naga",13.66966,123.290855
1419,"Nauruan",-1.11153781957284,166.528582279545
1420,"Nehan",-4.55594517837831,154.209427718905
1421,"Nehan-North Bougainville",-5.04462522720685,154.571640698346
1422,"Nemi",-20.6913331093453,164.81778984375
1423,"New Caledonian",-20.9731201459665,165.016103926809
1424,"New Georgia",-8.27576695052908,157.243721587612
1425,"New Ireland",-6.11694217390433,155.43651141764
1426,"Ngero",-5.71332637783856,147.9475328125
1427,"Ngero-Vitiaz",-5.65514374791234,147.700927846357
1428,"Nila-Serua",-6.53087,129.758145
1429,"Nimoa-Sudest",-11.4251866666667,153.378156666667
1430,"North",0.120075151795151,119.739964570313
1431,"North",-1.0284395343217,126.617086151343
1432,"North",-7.78828751401346,126.394981937641
1433,"North",-7.0520339099331,147.779025415929
1434,"North",-19.6993902928704,165.151145685369
1435,"North and Central Vanuatu",-15.9712994792931,167.579115364611
1436,"North Bomberai",-2.8274,132.69425
1437,"North Borneo",3.59445431803537,114.576019525315
1438,"North Central Cordilleran",17.198186710544,121.143503224479
1439,"North Mangyan",13.1667666666667,120.992333333333
1440,"North New Guinea",-5.28324248012223,146.658514418844
1441,"North Papuan Mainland-D'Entrecasteaux",-9.70423718934958,150.416950269311
1442,"North Sarawakan",3.19770906229864,114.125846847307
1443,"Northeast",1.51393,125.05212
1444,"Northeast Vanuatu-Banks Islands",-15.9025003626882,167.627443359103
1445,"Northeastern Luzon",17.0791377809639,122.101140078125
1446,"Northern",24.4702212559737,121.805219047224
1447,"Northern",3.27637795736041,124.154787910156
1448,"Northern",0.42569,120.89031
1449,"Northern",17.0791377809639,122.101140078125
1450,"Northern",-20.5344332846403,164.517780400815
1451,"Northern",-8.88191327910842,161.042556675595
1452,"Northern",-4.6906,145.975
1453,"Northern Cham",15.22336,109.1743
1454,"Northern Cordilleran",17.4796060955124,121.714873465794
1455,"Northern Luzon",17.0734938084636,121.317347161878
1456,"Northwest Formosan",23.8620179998242,121.294924829893
1457,"Northwest Seram",-3.07796030635209,128.283088067816
1458,"Nuclear",-9.87614713120379,150.386870103203
1459,"Nuclear",-13.9528614511339,179.182224614271
1460,"Nuclear Bel",-5.0198,145.7825
1461,"Nuclear Cordilleran",16.9789022586254,120.971071831734
1462,"Nuclear Muna-Buton",-5.02494438828616,122.829238122306
1463,"Nuclear Southern Cordilleran",16.2729421239946,121.186069494748
1464,"Nuclear Timor",-8.77386666666667,125.971333333333
1465,"Numbami",-7.0520339099331,147.779025415929
1466,"Nunusaku",-3.32373208819986,128.472369761659
1467,"Oceanic",-11.9420310196649,162.356912556949
1468,"Oumic",-10.2392488109812,149.30419921875
1469,"Paiwan",22.4232392837446,120.81793808125
1470,"Pak-Tong",-2.0527,147.767
1471,"Palawanic",9.15551694585844,118.630582441316
1472,"Pamona",-1.75,120.83
1473,"Pampangan",14.9734289651525,121.394334627891
1474,"Papuan Tip",-9.7296246526007,149.777569264275
1475,"Pasismanua",-6.20609004577463,149.7216796875
1476,"Periphera",11.1539,122.512
1477,"Peripheral",-7.63771453928455,147.103250148926
1478,"Philippine",12.3641095862894,122.582154050226
1479,"Piru Bay",-3.44661797912374,128.56701060858
1480,"Piva-Banoni",-6.33190735317394,155.204880859375
1481,"Polynesian",-15.0819516210018,185.131871122326
1482,"Ponapeic",5.97357274092988,160.532053416773
1483,"Ponapeic-Trukic",8.04346453313158,148.399729431668
1484,"Pukapuka",-10.9247420638001,194.156172375576
1485,"Puyuma",22.6899395128695,121.034384889323
1486,"Raja Ampat",-0.906253333333333,130.404053333333
1487,"Ramelaic",-8.48342337239972,125.766507792477
1488,"Rapanui",-27.1178128423212,250.628356933594
1489,"Reefs-Santa Cruz",-10.53704,165.8997325
1490,"Remote Oceanic",-15.029456717696,168.810025076235
1491,"Roinji-Nenaya",-5.8802,146.816333333333
1492,"Romblon",12.40466,122.56031
1493,"Rotuman",-12.7863633858312,177.138087277041
1494,"Rukai",22.8305598544833,120.847032057292
1495,"Saaroa",23.0371,120.651
1496,"Sabahan",5.73107,117.1215825
1497,"Saluan-Banggai",-1.24511996715581,123.343896972656
1498,"Sama-Bajaw",-0.944436337408041,121.819487054518
1499,"Samar-Waray",12,125
1500,"Sambalic",15.3291655555556,120.210713333333
1501,"Samoan",-14,190
1502,"Samoic-Outlier",-11.7724334982803,170.226312789227
1503,"San Cristobal",-10.0283888666667,160.500152133333
1504,"Sangiric",4.08737078401774,125.159446113281
1505,"Santa Isabel",-8.20351889098578,159.435997366477
1506,"Saposa-Tinputz",-5.73515564711474,155.104226972253
1507,"Sarmi",-2.150605,139.362325
1508,"Sarmi-Jayapura Bay",-2.28178666666667,139.7835
1509,"Sasak-Sumbawa",-8.69355400118156,116.8756434375
1510,"Sawai-Nuaulu",-3.2341,129.148
1511,"Schouten",-3.41064669958095,143.62549155692
1512,"Seediq",24.1626843189406,121.424105084375
1513,"Seram",-3.32904387664312,129.245454453222
1514,"Seram Straits",-3.44661797912374,128.56701060858
1515,"Siau",-3.153705,142.35401
1516,"Sinagoro-Keapara",-9.83362332687904,147.687058154297
1517,"Sinauna",14.62541,121.45323
1518,"Sio",-5.9604,147.353
1519,"Small Nambas",-16.4149705882353,167.563235294118
1520,"Solehua",-3.25,128.75
1521,"Solos",-4.88450498829041,154.480658485549
1522,"South",-0.875066448888053,112.68777146875
1523,"South",-4.66057035860752,127.242244344624
1524,"South",7.73671298636232,124.196162700725
1525,"South",-6.9985,146.754
1526,"South",-19.3485941176471,166.159882352941
1527,"South-Central Cordilleran",16.8742770098963,121.112466422364
1528,"South Bomberai",-3.66693,133.7915
1529,"South Halmahera",-0.810757406413835,129.813187372691
1530,"South Halmahera-West New Guinea",-1.47070363155964,132.40314602965
1531,"South Mangyan",12.5409650362058,121.221529296875
1532,"South New Ireland-Northwest Solomonic",-6.71964749376838,156.243364108212
1533,"South Vanuatu",-19.4704691895724,169.397649020158
1534,"Southeast",0.792831872729578,128.342370876875
1535,"Southeast Islands",-2.38930562994283,147.61206640625
1536,"Southeast Maluku",-7.1955022708103,131.63670818823
1537,"Southeast Solomonic",-9.51263089938648,160.656374789265
1538,"Southeastern",-3.34508622885528,121.803384593985
1539,"Southern",-0.105114346685338,122.40831640625
1540,"Southern",-7.75345127326905,131.283317612191
1541,"Southern",-21.68665,165.845285714286
1542,"Southern",-9.48232955828297,161.3683195875
1543,"Southern",-5.349,145.59
1544,"Southern Cordilleran",16.4159708725808,121.061089921721
1545,"Southwest",22.917922936146,120.76171875
1546,"Southwest",-4.6236,121.824
1547,"Southwest Babar",-8.28444635517256,129.917695058198
1548,"Southwest New Britain",-5.91097719769367,149.753045039062
1549,"Squliq",24.533554176288,121.393595210937
1550,"Suauic",-10.5223058174303,150.659185818142
1551,"Subanon",7.92156347960686,123.256781436681
1552,"Sula",-1.8234225,124.62890625
1553,"Sulu-Borneo",-1.93744789266849,121.69634794215
1554,"Tabar",-3.23796382264451,152.128678079871
1555,"Tagalog",14.4461087015762,121.456962846283
1556,"Tahitic",-22.3000498355049,199.601512622036
1557,"Taliabo",-1.8234225,124.62890625
1558,"Tami",-6.7002,147.732
1559,"Tanna",-19.5325318080683,169.353508236813
1560,"Taupota",-10.10336,150.426166
1561,"Tboli",6.19896696513434,124.427124023438
1562,"Temotu",-11.1426436363636,166.407151818182
1563,"Teun-Nila-Serua",-6.53087,129.758145
1564,"Thao",23.875791916101,120.877075195312
1565,"Three Rivers",-3.07796030635209,128.283088067816
1566,"Timor",-8.16736248048423,126.151745726803
1567,"Timor-Babar",-8.77386666666667,125.971333333333
1568,"Tokelauan",-8.95178497468883,188.463445097262
1569,"Tolitoli",1.14995,120.87458
1570,"Tomini",0.42569,120.89031
1571,"Tomini-Tolitoli",0.78782,120.882445
1572,"Tongic",-19.443459337596,187.631878059473
1573,"Trukic",8.5954356777187,145.16444303564
1574,"Tsou",23.5,120.75
1575,"Tsouic",23.2368214285714,120.723661428571
1576,"Tuam",-5.9046,147.7495
1577,"Tukangbesi-Bonerate",-5.82423770065508,122.132265214844
1578,"Ulat Inai",-3.07796030635209,128.283088067816
1579,"Uliase",-3.32028,128.93888
1580,"Umiray Dumaget",14.5164,122.1715
1581,"Utupua",-11.26955,166.484526666667
1582,"Utupua-Vanikoro",-11.4887028571429,166.697105714286
1583,"Vitiaz",-5.64605271198637,147.662395820397
1584,"Wailic",-21.415,165.4035
1585,"Wampar",-6.66733557666654,147.513427734375
1586,"Warayan",12,125
1587,"Waropen",-2.33,136.58
1588,"West",-0.75517483666604,112.883016101563
1589,"West",3.78566552016896,123.132232730469
1590,"West",-2.0629850790795,146.568766909871
1591,"West",-8.11720586847288,157.3068171875
1592,"West Central Papuan",-8.687815,146.714961
1593,"West Coast",-3.80945222222222,121.833694444444
1594,"West Damar",-8.07258086134465,128.463215743173
1595,"West Fijian",-17,177.3
1596,"West Fijian-Rotuman",-14.8931816929156,177.219043638521
1597,"West New Guinea",-1.86667136664712,133.957121223826
1598,"West Santo",-15.3564325,166.872869444444
1599,"West Southern Cordilleran",16.2141184366621,121.043391245623
1600,"Western",0.21727,116.76034
1601,"Western",-2.32191476584128,125.7848114511
1602,"Western",-5.02494438828616,122.829238122306
1603,"Western Oceanic",-7.04137181819797,151.090484067009
1604,"Western Plains",24.0606702737287,120.647989313616
1605,"Western Sulu Sama",6.27167,120.53586
1606,"Wetar",-7.78828751401346,126.394981937641
1607,"Willaumez",-5.28008994572581,150.628791666667
1608,"Wolio-Kamaru",-5.76494403414826,123.898927157444
1609,"Wotu-Wolio",-5.76494403414826,123.898927157444
1610,"Xaracuu-Xaragure",-21.7319,166.124
1611,"Yamdena",-7.75345127326905,131.283317612191
1612,"Yami",22.1889453684863,121.933780809292
1613,"Yapen",-2.1611701782454,135.107080490388
1614,"Zire-Tiri",-21.73455,165.637
1615,NA,21.4441956863561,120.713256267246
1616,NA,18.7166325012988,120.021701966325
1617,NA,8.93273492442815,117.930334962935
1618,NA,6.17380011493334,119.153790904934
1619,NA,5.15875613073142,121.408115648478
1620,NA,2.36772566263124,125.984100898055
1621,NA,0.398601489148018,131.403433436189
1622,NA,-4.92652169616355,143.770992027648
1623,NA,-5.08213820485225,144.736044213401
1624,NA,-5.2132701486646,144.97125055605
1625,NA,-5.44415315425384,145.857282848231
1626,NA,-5.62804071070649,146.683230805807
