"","id_lang","name","lat","lon","node_id"
"1","1328","Paiwan (Tjatjigel Egli)",22.3271,120.806,1
"2","138","Tsou T63",23.5,120.75,2
"3","177","Paiwan (Kulalao F82)",22.289096418723,120.78369140625,3
"4","202","Bunun F69, Southern",23.2652036192958,121.913826267022,4
"5","203","Kanakanabu F69",23.044,120.59,5
"6","241","Thao B96",23.875791916101,120.877075195312,6
"7","255","Atayal - Squliq F69",24.567108352576,121.453857421875,7
"8","256","Atayal - C'uli' F69 (Bandai)",24.5471231797308,121.300048828125,8
"9","257","Favorlang F69",23.89588,120.75073,9
"10","260","Kavalan F69",24.9163314045991,121.805419921875,10
"11","266","Pazih F69",23.2652036192958,121.913826267022,11
"12","271","Puyuma (Chihpen F69)",22.7837785386086,121.110534667969,12
"13","272","Rukai (Budai F69)",22.8166941268998,120.91552734375,13
"14","273","Saaroa F69",22.811,120.591,14
"15","274","Saisiyat F69",24.5646103801768,120.995178222656,15
"16","275","Seediq F69 (Sakura)",24.1467535947031,121.453857421875,16
"17","276","Siraya F69",22.917922936146,120.76171875,17
"18","350","Amis (Central)",23.130257185291,121.3330078125,18
"19","369","Basay TsYM91",23.2652036192958,121.913826267022,19
"20","635","Babuza Ts82",24.00168,120.58462,20
"21","636","Hoanya Ts82",24.32398,120.57694,21
"22","637","Papora Ts82",24.32398,120.57694,22
"23","638","Taokas Ts82",24.00168,120.58462,23
"24","720","Kavalan LTs",24.69475,121.64463,24
"25","726","Bunun (Takituduh L88)",23.41164,121.02534,25
"26","742","Atayal - C'uli' L04 (Mayrinax)",24.52089,121.38819,26
"27","743","Proto-Puyuma",22.64302,120.99631,27
"28","749","Proto-Tsouic",23.21605,120.78663,28
"29","759","Puyuma (Nanwang Cq)",22.64302,120.99631,29
"30","760","Pazih LTs (Auran)",23.75624,120.97577,30
"31","799","Amis (Fata'an)",23.333333,121.333333,31
"32","800","Amis (Farang)",23.333333,121.333333,32
"33","802","Atayal - C'uli' L04 (Skikun)",24.5,121.333333,33
"34","806","Paiwan (Butanglu L04)",22.5,120.833333,34
"35","807","Paiwan (Stimul L04)",22.5,120.833333,35
"36","808","Paiwan (Tjubar L04)",22.5,120.833333,36
"37","812","Rukai (Tanan L04)",22.833333,120.833333,37
"38","813","Rukai (Budai L04)",22.833333,120.833333,38
"39","814","Rukai (Maga L04)",22.833333,120.833333,39
"40","815","Rukai (Tona)",22.833333,120.833333,40
"41","816","Rukai (Mantauran L04)",22.833333,120.833333,41
"42","819","Atayal - Squliq L04",24.5,121.333333,42
"43","820","Seediq L04 (Paran)",24.166667,121.416667,43
"44","821","Seediq L04 (Toda)",24.166667,121.416667,44
"45","822","Seediq L04 (Hecuo)",24.166667,121.416667,45
"46","823","Seediq L04 (Truku)",24.166667,121.416667,46
"47","824","Tsou (Duhtu L04)",23.5,120.75,47
"48","825","Kanakanabu L04",23.3235,120.887,48
"49","826","Saaroa L04",23.2632,120.711,49
"50","831","Favorlang OL03",24.0017,120.585,50
"51","832","Basay L04",25.0046,121.857,51
"52","12","Gorontalo (Hulondalo)",0.549307991112515,122.67333984375,52
"53","1200","Kapampangan",14.9603,120.502,53
"54","1208","Naga Bikol",13.1989,123.49,54
"55","1211","Arta",16.4185,121.656,55
"56","1215","Ponosakan",0.9172,124.712,56
"57","1257","Ayta Mag-antsi",15.1954,120.459,57
"58","1258","Manide",14.1571,122.835,58
"59","1260","Inati (Nagpana)",11.1539,122.512,59
"60","1261","Umiray Dumaget",14.8757,121.508,60
"61","1262","Ayta Abellen",15.4131,120.2,61
"62","1263","Ayta Ambala",14.8156,120.283,62
"63","1264","Ayta Mag-anchi",15.1954,120.459,63
"64","1265","Bolinao",16.3071,119.853,64
"65","1266","Botolan Sambal",15.2315,120.164,65
"66","1267","Ayta Mag-indi",14.9617,120.182,66
"67","1268","Sambal",15.5797,120.095,67
"68","1269","Iraya",13.381,120.65,68
"69","1270","Alangan",13.0982,121.022,69
"70","1271","Tadyawan",13.0211,121.305,70
"71","1272","Batangan",12.6396,121.21,71
"72","1273","Buhid",12.6396,121.21,72
"73","1274","Hanunoo",12.4159,121.221,73
"74","1275","Ratagnon",12.2785,121.187,74
"75","1276","Sogodnin (Boracay)",11.1539,122.512,75
"76","1277","Sogodnin (Iloilo)",11.1539,122.512,76
"77","1278","Malaweg",17.7329,121.58,77
"78","13","Hanunóo",12.4687601448232,121.2451171875,78
"79","133","Tboli (Tagabili)",6.22793393026867,124.354248046875,79
"80","137","Tontemboan",1.16447060718061,124.56298828125,80
"81","144","Western Bukidnon Manobo",7.66744148272607,124.716796875,81
"82","1463","Isinay (Dupax)",16.3299,121.12,82
"83","153","Cebuano",10.4337932431844,123.81591796875,83
"84","157","Itbayaten",20.7509771440778,121.83837890625,84
"85","183","Sangir",1.41709182944164,125.211181640625,85
"86","193","Hiligaynon",-11.2753866926,166.48681640625,86
"87","240","Bolaang Mongondow",0.981806749482678,124.764225332537,87
"88","248","Iraralay",20.81004,121.86859,88
"89","249","Itbayat",20.7509771440778,121.83837890625,89
"90","250","Imorod",20.76639,121.85211,90
"91","251","Ivasay",20.3858253818743,121.9482421875,91
"92","252","Isamorong",20.72529,121.81915,92
"93","254","Yami",21.1126871176768,121.953735351562,93
"94","265","Palawan Batak",9.76831962330826,119.569541928441,94
"95","277","Tagalog",14.5623177019149,121.0693359375,95
"96","279","Ibanag",17.4240286338779,121.9482421875,96
"97","288","Ilokano",17.6440220278727,121.11328125,97
"98","289","Babuyan",19.5183754786016,121.959228515625,98
"99","29","Kaidipang",0.884364296613886,123.096313476562,99
"100","291","Koronadal Blaan",6.03131070712582,125.068359375,100
"101","293","Sarangani Blaan",5.87833210967433,125.33203125,101
"102","3","Banggi",7.29249,117.17448,102
"103","31","Kakiduge:n Ilongot",17.0215281803367,121.114185950016,103
"104","33","Kapampangan",14.986557930305,122.286669255782,104
"105","335","Yami",23.2652036192958,121.913826267022,105
"106","36","Bontok, Guina-ang",17,121,106
"107","389","Tagalog",14.111058552195,121.879257723817,107
"108","405","Pangasinan",15.92,120.33,108
"109","408","Tagalog (Anthony dela Paz)",14.111058552195,121.879257723817,109
"110","409","Agta",18.1980436867627,121.959228515625,110
"111","410","Atta, Pamplona",18.12497,120.91553,111
"112","411","Balangaw",17.17,121.17,112
"113","412","Batak, Palawan",10.081456652992,119.536079689071,113
"114","413","Bilaan, Koronadal",6.20529,125.00664,114
"115","414","Bilaan, Sarangani",6,125.333333,115
"116","415","Binukid",8.25,124.83,116
"117","416","Bontok, Guina-ang",17.08,120.92,117
"118","417","Dumagat, Casiguran",16.7835055619278,122.01416015625,118
"119","418","Gaddang",16.55196,121.24512,119
"120","419","Ifugao, Amganad",16.8981626896678,120.959618217957,120
"121","420","Ifugao, Batad",16.8981626896678,120.959618217957,121
"122","421","Ifugao, Bayninan",16.8981626896678,120.959618217957,122
"123","422","Ilongot, Kakiduge:n",17.0215281803367,121.114185950016,123
"124","423","Inibaloi",14.986557930305,122.286669255782,124
"125","424","Isneg, Dibagat-Kabugao-Isneg",17.9182391680679,122.13587726436,125
"126","425","Itbayaten",20.333333,121.833333,126
"127","426","Itneg, Binongan",17.9182391680679,122.13587726436,127
"128","427","Ivatan, Basco Dialect",20.5,122,128
"129","428","Kalagan",7.1,125.595,129
"130","429","Kalinga, Guinaang, Lubuagan Dialect",17.58119,121.20117,130
"131","43","Aklanon - Bisayan",11.5338521915105,122.36572265625,131
"132","430","Kallahan, Kayapa Proper",16.35177,120.88806,132
"133","431","Kallahan, Keleyqiq",16.70197,121.10092,133
"134","432","Kankanay, Northern",16.8981626896678,120.959618217957,134
"135","433","Mamanwa",9.18887,125.8374,135
"136","434","Manobo, Ata (up-river)",7.70147,124.27391,136
"137","435","Manobo, Ata (down-river)",7.66608,124.21623,137
"138","436","Manobo, Dibabawon",7.68956,124.24816,138
"139","437","Manobo, Ilianen (Kibudtungan Dialect)",7.2208,124.24713,139
"140","438","Manobo, Kalamansig Cotabato (Paril Dialect)",7.69075,124.24782,140
"141","439","Manobo, Sarangani, Kayaponga Dialect",5.92204,125.22217,141
"142","440","Manobo, Tigwa, Iglogsad Dialect",7.64022,124.37897,142
"143","441","Manobo, Western Bukidnon",7.67,124.75,143
"144","442","Mansaka",7.09544,126.17798,144
"145","444","Sambal, Botolan",15.26299,120.20142,145
"146","445","Sangil, Saragani Islands",9.93842,125.07797,146
"147","446","Sangir, Tabukang Dialect",3.5,125.5,147
"148","447","Subanun, Sindangan",8.02833448071282,123.320544612578,148
"149","448","Subanon, Siocon",7.81479247850091,123.193018260784,149
"150","449","Tagabili",6.17,124.5,150
"151","450","Tagbanwa, Aborlan Dialect",10.081456652992,119.536079689071,151
"152","451","Tagbanwa, Kalamian, Coron Island Dialect",11.4475630345007,120.644042490729,152
"153","452","Tausug, Jolo Dialect",5.70411960668088,121.268401294372,153
"154","458","Iranun",6.50635695181804,116.54296875,154
"155","466","Surigaonon",8.83829831149302,125.62105490998,155
"156","467","Ilonggo",10.25,123,156
"157","47","Bikol (Naga City)",13.58192,123.17871,157
"158","483","Butuanon",8.87009,125.41841,158
"159","494","S.W. Palawano",8.5538618,117.3367309,159
"160","496","Tonsea",1.51393,125.05212,160
"161","5","Bantik",1.49397130662932,124.8486328125,161
"162","513","Waray-Waray",12,125,162
"163","618","Buol",0.97727,121.51903,163
"164","657","Kinaray-a",10.81307,122.2969,164
"165","660","Capisano",11.41215,122.95359,165
"166","671","Kalinga, Southern",17.29358,121.06787,166
"167","672","Kalinga, Limos",17.60813,121.38057,167
"168","673","Bontok, Eastern",17.03193,121.11048,168
"169","678","Itawis",17.73286,121.5796,169
"170","679","Ibaloi",16.42625,120.69508,170
"171","681","Kankanaey",16.8548,120.68924,171
"172","685","Maguindanaon",6.9453,124.50856,172
"173","686","Sinauna",14.62541,121.45323,173
"174","687","Romblon",12.40466,122.56031,174
"175","688","Cuyonon",10.32008,119.30028,175
"176","707","Tiruray",6.77321,124.12673,176
"177","708","Bantoanon (Banton)",12.51942,122.03419,177
"178","710","Bikol (Buhinon)",13.19891,123.48979,178
"179","711","Kalinga (Minangali)",17.34407,121.31148,179
"180","713","Yogad",16.70149,121.71773,180
"181","722","Bikol (Rinconada)",13.38959,123.3307,181
"182","730","Dupaningan Agta",17.37477,122.18812,182
"183","755","Masbatenyo",12.21453,123.63579,183
"184","783","Samar-Leyte",12,125,184
"185","788","Marinduque Tagalog",15,121,185
"186","859","Bikol (Bisakol)",13.7574,123.403,186
"187","86","Maranao",7.7218784993245,124.1455078125,187
"188","860","Kagayanen",10.4656,119.872,188
"189","978","Itawis",17.7329,121.58,189
"190","104","Nias",-0.307615709643901,98.4375,190
"191","109","Palauan",7.45133706377975,134.340220799795,191
"192","114","Rejang Rejang",-3.42,102.5,192
"193","1182","Mentawai (Ngangan Sakalagan)",-1.4109,98.9401,193
"194","1183","Enggano",-5.3885,102.245,194
"195","1185","Mentawai (Pagai and Sipora)",-1.4109,98.9401,195
"196","1390","Musau",-1.441,149.624,196
"197","1422","Eastern Ngad'a",-8.8275,121.121,197
"198","166","Makassar",-5.44102230371796,119.53125,198
"199","18","Chamorro",13.5605617450814,144.86572265625,199
"200","188","Toba Batak",2.48213340373058,99.140625,200
"201","20","Javanese",-7.40604771707626,110.9619140625,201
"202","214","Lampung",-3.1961072315384,103.056298561839,202
"203","226","Tae' (S.Toraja)",-3.03081,119.75098,203
"204","283","Yogya",-7,111,204
"205","284","Sundanese",-6.98486149438615,106.915849839275,205
"206","290","Old Javanese",-7.40604771707626,110.9619140625,206
"207","333","Komering",-3.93002015711146,105.5126953125,207
"208","48","Buginese (Soppeng Dialect)",-4.71946556590761,119.762863008201,208
"209","492","Enggano (Malakoni Village)",-5.416667,102.25,209
"210","493","Enggano (Banjar Sari)",-5.416667,102.25,210
"211","594","Komering (Kayu Agung Asli)",-3.79215,105.10712,211
"212","595","Komering (Ulu), Adumanis Village",-3.79215,105.10712,212
"213","596","Komering (Ilir), Palau Gemantung Village",-3.79215,105.10712,213
"214","597","Komering (Ulu), Perjaya Village",-3.79215,105.10712,214
"215","598","Komering (Ulu), Damarpura Village",-3.79215,105.10712,215
"216","599","Lampung Api (Daya)",-5,105,216
"217","6","Gayo",3.95194085615759,97.734375,217
"218","600","Lampung Api (Ranau)",-4.72129,104.03249,218
"219","601","Lampung Api (Sukau)",-5,105,219
"220","602","Lampung Api (Krui)",-5.16158,104.08937,220
"221","603","Lampung Api (Belalau)",-5,105,221
"222","604","Lampung Api (Way Kanan)",-5,105,222
"223","605","Lampung Api (Kota Agung)",-5,105,223
"224","606","Lampung Api (Talang Padang)",-5,105,224
"225","607","Lampung Api (Way Lima)",-5,105,225
"226","608","Lampung Api (Sungkai)",-4.63228,104.45891,226
"227","609","Lampung Api (Pubian)",-4.8008,105.33909,227
"228","610","Lampung Api (Kalianda)",-5,105,228
"229","611","Lampung Nyo (Melinting)",-5,105,229
"230","612","Lampung Api (Jabung)",-5,105,230
"231","613","Komering (Kayu Agung Pendatang)",-3.79215,105.10712,231
"232","614","Lampung Nyo (Abung/Sukadana)",-4.43957,105.39652,232
"233","615","Lampung Nyo (Abung/Kotabumi)",-4.43957,105.39652,233
"234","616","Lampung Nyo (Menggala/Tulang Bawang)",-5,105,234
"235","661","Karo Batak",2.12787,98.25166,235
"236","75","Madurese",-7.40756848691353,111.909426649797,236
"237","77","Yapese",9.59852977216943,138.292190823672,237
"238","79","Mussau",-1.43905766080775,149.622802734375,238
"239","83","Maloh",1.17,112.33,239
"240","863","Angkola / Mandailing",1.6613,99.6025,240
"241","864","Mentawai",-1.4109,98.9401,241
"242","95","Moken",9.50737630246525,98.8469345977253,242
"243","981","Mentawai (Madobat)",-1.4109,98.9401,243
"244","982","Mentawai (Salappa)",-1.4109,98.9401,244
"245","983","Mentawai (Ulubaga)",-1.4109,98.9401,245
"246","984","Mentawai (Bariulou)",-1.4109,98.9401,246
"247","985","Mentawai (Bosua)",-1.4109,98.9401,247
"248","986","Mentawai (Sioban)",-1.4109,98.9401,248
"249","987","Mentawai (Pasapuat)",-1.4109,98.9401,249
"250","988","Mentawai (Silabu)",-1.4109,98.9401,250
"251","989","Mentawai (Saumanganya)",-1.4109,98.9401,251
"252","990","Mentawai (Boriai)",-1.4109,98.9401,252
"253","991","Mentawai (Bulasat)",-1.4109,98.9401,253
"254","992","Mentawai (Sikakap)",-1.4109,98.9401,254
"255","993","Enggano (Meok)",-5.3885,102.245,255
"256","994","Simeulue",2.5029,96.2757,256
"257","1","Balinese",-8.32021228952294,115.0927734375,257
"258","107","Ogan",-2.69797689175062,104.915771372616,258
"259","112","Popalia",-4.25877,122.47559,259
"260","1184","Malagasy (Sakalava)",-20.28,44.32,260
"261","1186","Malagasy (Tandroy)",-24.8015,45.9,261
"262","1190","Malagasy (Tanala)",-19.5907,47.1211,262
"263","1191","Bangka Malay",-1.7329,105.897,263
"264","1192","Jambi Malay",-2.6469,103.13,264
"265","1193","Lom (Mapurese)",-1.7329,105.897,265
"266","1204","Lahat (Central Malay)",-3.7967,103.137,266
"267","1209","Paser",-1.8026,115.876,267
"268","125","Singhi",1.31824,110.34668,268
"269","147","Wuna",-5,122.5,269
"270","1470","Lebo' Vo'",3.5444,114.039,270
"271","1472","Lepo' Gah",3.5444,114.039,271
"272","1473","Lepo' Laang",3.5444,114.039,272
"273","1474","Lepo' Sawa",3.5444,114.039,273
"274","1475","Lepo' Tau",3.5444,114.039,274
"275","15","Bintulu",2.96882635733302,112.440793931919,275
"276","150","Banjarese Malay",-1.19701784735807,113.354967120357,276
"277","151","Belait",4.43404,114.33472,277
"278","154","Dayak Ngaju",1.416667,109.833333,278
"279","158","Katingan",-1.36217634666416,113.75244140625,279
"280","17","Bonerate",-7.38970540131017,121.788940429688,280
"281","170","Melayu Ambon",-4,128,281
"282","172","Minangkabau",-0.65916514628945,100.92041015625,282
"283","181","Punan Kelai",2.43823,116.71875,283
"284","185","Sasak",-8.66791800236312,116.279296875,284
"285","189","Tunjung",-1.20840649727186,116.03759765625,285
"286","192","Wolio",-5.76494403414826,123.898927157444,286
"287","195","Bukat",1.1864386394452,113.291015625,287
"288","2","Banggai (W.dialect)",-1.60653993431162,123.513793945312,288
"289","200","Yakan",6.54455998565332,122.05810546875,289
"290","205","Lahanan",2.49037,114.67255,290
"291","208","Bare'e",-1.75,120.83,291
"292","215","Ma'anyan",-2.34878701781515,114.85075347668,292
"293","22","Timugon (Murut)",5,116,293
"294","232","Modang",0.06042,111.34094,294
"295","233","Malay (Bahasa Indonesia)",-6.66461,106.875,295
"296","237","Kayan (Uma Juman)",1.31824,111.70898,296
"297","262","Ida'an",5.06906,118.25684,297
"298","263","Melayu Brunei (Dialect)",4.54905,114.57092,298
"299","27","Muna (Katobu-Tongkuno Dialect)",-5.11957755314463,122.914952489225,299
"300","28","Iban",0.527336304811517,112.7197265625,300
"301","360","Dayak Ngaju",-2.67969,114.47754,301
"302","361","Hainan Cham",18.25,109.5,302
"303","362","Indonesian",-3.59419889631258,108.183319082899,303
"304","371","Phan Rang Cham (Eastern Cham)",11.3347096546263,109.045927013325,304
"305","406","Chru",11.5,108.5,305
"306","41","Mori",-2.48213340373056,121.31103515625,306
"307","443","Samal, Siasi Dialect",5.53945,120.84961,307
"308","45","Berawan (Long Terawan)",3.95194,114.64233,308
"309","468","Melayu",3,102,309
"310","478","Low Malay (1773)",3.166667,101.7,310
"311","487","Kadorih",-0.3955,113.46875,311
"312","488","Dayak Bakatiq-Sara/Riok",1.05463,109.42383,312
"313","489","Bajo",-3.16246,119.53125,313
"314","490","Inabaknon",12.41981,124.16679,314
"315","491","Mapun",9.583333,121.2,315
"316","495","Bundu Dusun (Central Dusun)",6.02998,116.68089,316
"317","507","Melayu Sarawak (dialect)",3.166667,101.7,317
"318","60","Kelabit (Bario)",3.67,115.42,318
"319","619","Bajo (Kolo Bawah)",-1.64772205179692,121.83837890625,319
"320","62","Kenyah (Long Anap)",4.48881,114.06006,320
"321","620","Bajo (Padei Laut)",-3.57373032012654,123.118286132812,321
"322","621","Bajo (Kayuadi)",-6.7737162387535,120.78369140625,322
"323","622","Bajo (Pitulua)",-3.51342104564004,121.0693359375,323
"324","623","Bajo (Bajoe)",-4.54357,120.256347,324
"325","624","Bajo (Lauru)",-4.81731231582612,122.047119140625,325
"326","625","Bajo (Moramo)",-4.17111545486,122.689819335938,326
"327","626","Bajo (Boepinang)",-4.696879026,121.607666015625,327
"328","627","Bajo (Lakaramba)",-4.54630822474438,122.725524902344,328
"329","628","Bajo (Kaleroang)",-3.01984110616897,122.398681640625,329
"330","629","Bajo (Lakonea)",-4.7078283752183,123.145751953125,330
"331","63","Kerinci",-2.24063960938272,101.6015625,331
"332","630","Bajo (Langara Laut)",-4.03961782676842,122.969970703125,332
"333","631","Bajo (Lapulu)",-4.42309047796092,122.228393554688,333
"334","632","Bajo (Luwuk)",-1.09856549604066,122.607421875,334
"335","633","Bajo (Anaiwoi)",-4.434044,121.552734375,335
"336","634","Bajo (Lemo Bajo)",-4.05057678613347,122.54150390625,336
"337","648","Acehnese",3.90757,96.60325,337
"338","650","Besemah",-3.60114,103.0957,338
"339","652","Ternate (Pasar-Lingua franca)",-0.86437,128.32323,339
"340","656","Dusun Tuhauon (Tambunan)",5.68284,116.3726,340
"341","663","Sumbawa",-8.71919,117.47199,341
"342","674","Tolaki",-4.03577,121.88825,342
"343","712","Lundayeh",3.9244,115.86096,343
"344","732","Sama (Sibutu)",5.13894,119.92596,344
"345","733","Sama (Pangutaran)",6.27167,120.53586,345
"346","741","Rhade",12.979,108.40989,346
"347","744","Jarai",13.69433,108.14356,347
"348","745","Roglai, Northern",12.19672,108.8486,348
"349","748","Totoli",1.14995,120.87458,349
"350","752","Tomini (Tialo)",0.42569,120.89031,350
"351","793","Urak Lawoi'",8,98.333333,351
"352","830","Cham, Western",12,105.5,352
"353","875","Bahonsuai",-2.2257,121.707,353
"354","876","Bungku",-3.222,122.212,354
"355","877","Bungku (Landawe)",-3.222,122.212,355
"356","878","Bungku (Routa)",-3.222,122.212,356
"357","879","Bungku (Torete)",-3.222,122.212,357
"358","880","Bungku (Tulambatu)",-3.222,122.212,358
"359","881","Bungku (Waia)",-3.222,122.212,359
"360","882","Kodeoha",-3.222,122.212,360
"361","883","Koroni",-2.6367,121.977,361
"362","884","Kulisusu",-4.5841,123.045,362
"363","885","Mori Atas (Doule)",-2.2555,121.035,363
"364","886","Mori Atas (Impo)",-2.2555,121.035,364
"365","887","Mori Atas (Kolo-Kolo)",-2.2555,121.035,365
"366","888","Mori Atas (Lolonggoio)",-2.2555,121.035,366
"367","889","Mori Atas (Molio'A)",-2.2555,121.035,367
"368","890","Mori Atas (Molongkuni)",-2.2555,121.035,368
"369","891","Mori Atas (Olota)",-2.2555,121.035,369
"370","892","Mori Atas (Tambee)",-2.2555,121.035,370
"371","893","Mori Atas (Ulu'Uwoi)",-2.2555,121.035,371
"372","894","Mori Atas (Wulanderi)",-2.2555,121.035,372
"373","895","Mori Bawah (Bahano)",-2.5602,121.37,373
"374","896","Mori Bawah (Kangua)",-2.5602,121.37,374
"375","897","Mori Bawah (Karunsi'E)",-2.5602,121.37,375
"376","898","Mori Bawah (Mo'Iki)",-2.5602,121.37,376
"377","899","Mori Bawah (Petasia)",-2.5602,121.37,377
"378","90","Melanau (Mukah)",2.5,111.5,378
"379","900","Mori Bawah (Roda)",-2.5602,121.37,379
"380","901","Mori Bawah (Soroako)",-2.5602,121.37,380
"381","902","Mori Bawah (Watu)",-2.5602,121.37,381
"382","903","Mori Bawah (<U+014A>gusumbatu)",-2.5602,121.37,382
"383","904","Moronene",-4.6236,121.824,383
"384","905","Moronene (Mornene)",-4.6236,121.824,384
"385","906","Moronene (Tokotu'A)",-4.6236,121.824,385
"386","907","Padoe",-2.6064,121.236,386
"387","908","Taloki",-4.6478,122.872,387
"388","909","Tolaki (Asera)",-4.0358,121.888,388
"389","910","Tolaki (Konawe)",-4.0358,121.888,389
"390","911","Tolaki (Laiwui)",-4.0358,121.888,390
"391","912","Tolaki (Mekongga)",-4.0358,121.888,391
"392","913","Tolaki (Wiwirano)",-4.0358,121.888,392
"393","914","Tomadino",-2.5649,121.944,393
"394","915","Waru",-3.412,122.058,394
"395","916","Waru (Lalomerui)",-3.412,122.058,395
"396","917","Wawonii",-4.1359,123.1,396
"397","918","Wawonii (Menui)",-4.1359,123.1,397
"398","919","Wiau",-3.2463,121.059,398
"399","92","Merina (Malagasy)",-19.3940678953966,46.845703125,399
"400","934","Kadazan Dusun of Taginambur, Kota Belud, Sabah, Malaysia",6.1424,117.176,400
"401","968","Kambowa",-4.9901,122.951,401
"402","969","Kioko",-4.9901,122.951,402
"403","972","Mori Bawah (Tofatu)",-2.5602,121.37,403
"404","997","Andio",-0.8837,123.174,404
"405","999","Uma (Kantewu dialect)",-1.7042,119.968,405
"406","100","Ngadha",-8.87421700905355,121.014404296875,406
"407","101","Ngaibor (S.Aru)",2.30925,128.15277,407
"408","110","Paulohi",-3.25,128.75,408
"409","115","Roti (Termanu Dialect)",-10.779348472547,123.173217773438,409
"410","1181","Fatakai (Nuaulu)",-3.2341,129.148,410
"411","119","Savu",-10.6198362605868,121.880877159067,411
"412","1194","Hewa",-8.597711,122.708209,412
"413","122","Selaru",-7.75345127326905,131.283317612191,413
"414","124","Sika",-8.66791800236312,122.3876953125,414
"415","127","Soboyo",-1.8234225,124.62890625,415
"416","1331","Dobel (Koijabi dialect)",-6.3253,134.638,416
"417","1332","Kola",-5.4883,134.592,417
"418","1338","Batuley",-5.8144,134.7843,418
"419","1339","Ujir (Schapper)",-5.6933,134.257,419
"420","1362","Dadu'a",-8.6107,125.959,420
"421","1363","Fordata",-7.289,131.511,421
"422","1365","Naueti",-8.7073,126.741,422
"423","1366","Tetun Fehan",-9.1122,125.528,423
"424","1367","Tokodede",-8.6788,125.283,424
"425","1368","Waima'a",-8.5342,126.317,425
"426","14","Bima",-8.53756535080402,118.5205078125,426
"427","143","Watubela",-4.59833,131.69861,427
"428","16","Bobot",-3.49871005693759,130.624210207743,428
"429","160","Kisar",-8.02659484248955,127.188720703125,429
"430","161","Koiwai (Irian Jaya)",-3.66693,133.7915,430
"431","167","Mambai",-8.57966283377484,125.619226658682,431
"432","180","Pulau (Arguni)",-2.66787,132.54182,432
"433","186","Sekar",-2.98693,132.84668,433
"434","190","Ujir (N.Aru)",2.39432,128.15826,434
"435","194","Bonfia",-3.11858,130.51758,435
"436","197","Elat, Kei Besar",-5.64059,133.01697,436
"437","199","Alune",-3.10042061270418,128.174456135632,437
"438","204","Lio, Flores Tongah",-8.67606354930773,121.835632324219,438
"439","236","Kédang",-8.24411005754921,123.7939453125,439
"440","278","Werinama",-3.32699,129.95178,440
"441","296","Iliun",-7.8416151852047,125.92529296875,441
"442","297","Tugun",-7.71099165543322,126.771240234375,442
"443","298","Perai",-7.73757892412019,126.447261797582,443
"444","299","Aputai",-7.86338180530917,126.5185546875,444
"445","300","Galolen (Talur)",-7.88514728342433,126.45263671875,445
"446","301","Luang",-8.47753873121983,128.63972166572,446
"447","302","East Damar",-8.07258086134465,128.463215743173,447
"448","303","Teun",-6.97687,129.14154,448
"449","304","Serua",-6.3153,130.01495,449
"450","305","Nila",-6.74644,129.50134,450
"451","306","West Damar",-8.07258086134465,128.463215743173,451
"452","307","Dawera-Daweloor",-7.89260840513193,129.960107506771,452
"453","308","Dai",-7.89260840513193,129.960107506771,453
"454","309","North Babar",-8.07258086134465,128.463215743173,454
"455","310","South-East Babar",-8.07258086134465,128.463215743173,455
"456","311","Serili",-8.28444635517256,129.917695058198,456
"457","312","East Masela",-8.1595,129.8505,457
"458","313","Central Masela",-8.4998402862252,130.117203993592,458
"459","314","Emplawas",-8.28444635517256,129.917695058198,459
"460","315","Tela-Masbuar",-8.28444635517256,129.917695058198,460
"461","316","Imroing",-8.28444635517256,129.917695058198,461
"462","318","Kodi",-9.55741735684131,118.970947265625,462
"463","319","Wanukaka",-9.73071430575694,119.443359375,463
"464","32","Kambera",-9.99049080307028,120.38818359375,464
"465","320","Anakalang",-9.71988586246517,119.674072265625,465
"466","323","Lamboya",-9.72530012795391,119.371948242188,466
"467","324","Mamboru",-9.40571004160002,119.6630859375,467
"468","325","Gaura Nggaura",-10,119,468
"469","326","Wewewa (Tana Righu dialect)",-9.57908433588252,119.234619140625,469
"470","327","So'a",-8.67877869236305,121.206665039062,470
"471","328","East Sumbanese Kambera, Southern dialect",-10.0734060631886,120.702381123445,471
"472","329","East Sumbanese, Lewa dialect",-10.0734060631886,120.702381123445,472
"473","330","East Sumbanese, Umbu Ratu Nggai dialect",-10.0734060631886,120.702381123445,473
"474","332","Roma",-7.56399200553307,127.41943359375,474
"475","34","Lamaholot Ile Mandiri (Flores Timur)",-8.35825787130869,122.821655273438,475
"476","341","Nage",-8.70513,121.30956,476
"477","35","Erai",-7.78787,126.31256,477
"478","358","Amahai",-3.32028,128.93888,478
"479","379","Sou Amana Teru",-3.57785,128.31046,479
"480","403","Tetun Terik (Fehan dialect)",-9,126,480
"481","42","Atoni",-9.88228,124.05762,481
"482","482","Savu (1773)",-10.6198362605868,121.880877159067,482
"483","486","Lamalera (lembata)",-8.53225,123.4422,483
"484","50","Buru [Namrole Bay]",-3.5,126.5,484
"485","503","Ende",-8.833333,121.65,485
"486","53","Hitu (Ambon)",-3.63834191649498,128.268702434322,486
"487","59","Kei (Tanimbar-Kei)",-5.98610653670308,132.469197528538,487
"488","591","Tarangan Barat (Feruni)",-6.5,134.166667,488
"489","592","Palu'e (Nitung)",-8.32877,121.71811,489
"490","61","Kemak",-8.98546,125.22766,490
"491","70","Letinese",-8.2,127.67,491
"492","78","Yamdena",-7.75345127326905,131.283317612191,492
"493","8","Geser",-3.49871005693759,130.624210207743,493
"494","80","Murnaten (Alune)",-3.0555,128.39172,494
"495","84","Manggarai",-8.53756535080402,120.5859375,495
"496","853","Wetan",-8.1838,127.944,496
"497","88","Masiwang",-3.49871005693759,130.624210207743,497
"498","10","Gimán",-0.14316066226984,128.487258649535,498
"499","106","Numfor",-1.263843131735,134.757810767095,499
"500","1364","Irarutu",-2.9444,133.586,500
"501","142","Waropen",-2.33,136.58,501
"502","145","Windesi Wandamen",-2.22341053473621,134.265241471163,502
"503","1462","Roon",-2.4301,134.556,503
"504","207","As",-0.79099,131.69312,504
"505","24","Mor",-3,135.75,505
"506","40","Ambai (Yapen)",-1.83,136.5,506
"507","46","Biga (Misool)",-1.86735,130.12207,507
"508","49","Buli",0.792831872729578,128.342370876875,508
"509","55","Kasira (Irahutu)",-2.71661564894275,133.617494709733,509
"510","855","Taba",0.0734,127.423,510
"511","857","East Makian",0.0734,127.423,511
"512","93","Minyaifuin (Gebe)",-0.06042,129.39697,512
"513","996","Moor",-2.8706,135.95,513
"514","1423","Anuki",-9.6692,149.822,514
"515","1424","Sinaugoro (Balawaia Dialect)",-9.7979,147.861,515
"516","1425","Buhutu",-10.5074,150.18,516
"517","1426","Bunama",-10.0761,151.066,517
"518","1427","Bwaidoga",-9.5116,150.297,518
"519","1428","Dawawa",-10.1692,149.999,519
"520","1429","Dobu",-9.6324,150.825,520
"521","1430","Mekeo, East",-8.2385,146.586,521
"522","1431","Gapapaiwa",-9.7332,149.854,522
"523","1432","Ghayavi",-10.011,149.84,523
"524","1433","Gumawana",-9.285,150.762,524
"525","1434","Hula",-9.9943,147.705,525
"526","1435","Iamalele",-9.45,150.573,526
"527","1436","Iduna",-9.3436,150.24,527
"528","1437","Kilivila",-8.7257,151.072,528
"529","1438","Koluwawa",-9.4274,150.462,529
"530","1439","Lala",-8.932,146.749,530
"531","1440","Maisin",-9.2285,148.731,531
"532","1441","Minaveha",-9.5992,150.501,532
"533","1442","Misima",-10.6821,152.696,533
"534","1443","Molima",-9.5746,150.614,534
"535","1444","Motu",-9.6749,147.424,535
"536","1445","Muyuw",-9.195,152.731,536
"537","1446","Mekeo, North-West",-8.2385,146.586,537
"538","1451","Roro",-8.6715,146.544,538
"539","1452","Saliba",-10.6148,150.727,539
"540","1453","Sinaugoro (Saroa Dialect)",-9.7979,147.861,540
"541","1454","Sewa",-10.0277,150.956,541
"542","1455","Suau",-10.6606,150.21,542
"543","1456","Sudest",-11.5229,153.488,543
"544","1457","Tawala",-10.3115,150.644,544
"545","1458","Tubetube",-10.6599,151.034,545
"546","1459","Wedau",-10.1246,150.172,546
"547","1460","'Auhelawa",-10.0959,151.002,547
"548","1461","'Oyaoya",-10.5392,150.658,548
"549","1577","Keapara (Kalo Dialect)",-10.0467,147.7902,549
"550","159","Kilivila",-8.48323856391351,151.06201171875,550
"551","1619","Keapara (Keapara/Kerepunu Dialect)",-10.0999,147.8634,551
"552","164","Magori (South East Papua)",-10.2392488109812,149.30419921875,552
"553","165","Maisin",-9.17802457457837,148.809814453125,553
"554","211","Gapapaiwa",-9.75237013917329,149.87548828125,554
"555","218","Dobuan",-9.78485125075059,150.79833984375,555
"556","219","Molima",-9.57908433588252,150.64453125,556
"557","220","Roro",-8.75,146.58,557
"558","222","Ubir",-8.62273552315168,149.827019548963,558
"559","227","Suau",-10.7604610553486,150.383605957031,559
"560","26","Motu",-9.42738661503235,147.161865234375,560
"561","294","'Auhelawa",-10.2824913015242,151.01806640625,561
"562","367","Sudest",-11.52292,153.48807,562
"563","374","Diodio",-9.39487,150.16113,563
"564","380","Vilirupu",-9.83,147.83,564
"565","381","Wedau",-10.17,150.17,565
"566","393","Kuni",-8.66368,146.87435,566
"567","395","Lala",-8.92,146.75,567
"568","396","Doura",-9.10008,146.98836,568
"569","397","Gabadi",-9.03389,146.9919,569
"570","404","Saliba",-10.58,150.72,570
"571","51","Bwaidoga",-9.47073567413093,150.303955078125,571
"572","511","Gumawana",-9.25,150.833333,572
"573","617","Sewa",-10.02772,150.95608,573
"574","646","Muyuw",-9.17802457457837,152.8857421875,574
"575","651","Tawala",-10.3115,150.64383,575
"576","669","Nimoa",-11.22974,153.1584,576
"577","89","Mekeo",-8.33,146.5,577
"578","94","Misima",-10.68215,152.69631,578
"579","123","Sengseng",-6.22793393026867,149.765625,579
"580","126","Sobei",-1.92,138.75,580
"581","132","Tarpia",-2.38121,139.97465,581
"582","1329","Mato (Ramuk dialect)",-5.9164,146.859,582
"583","1330","Mangap-Mbula",-5.6696,148.041,583
"584","1333","Tami",-6.7002,147.732,584
"585","1334","Mumeng (Patep dialect)",-6.9199,146.639,585
"586","1335","Mangseng",-5.8975,150.68,586
"587","1336","Bariai",-5.5087,148.666,587
"588","1337","Wogeo",-3.2024,144.089,588
"589","1343","Malalamai",-5.7749,146.642,589
"590","1344","Ham",-5.349,145.59,590
"591","1345","Si<U+014B>orakai",-5.9401,147.058,591
"592","1346","Wab",-5.6122,146.461,592
"593","1347","Biliau",-5.599,146.355,593
"594","1348","Roinji",-5.8078,146.731,594
"595","1350","Nenaya",-5.9164,146.859,595
"596","1351","Takia",-4.6906,145.975,596
"597","1353","Mindiri",-5.5461,146.138,597
"598","1355","Sio",-5.9604,147.353,598
"599","1356","Malasanga",-5.9401,147.058,599
"600","1358","Mutu",-5.7941,148.014,600
"601","1359","Gitua",-6.0151,147.485,601
"602","1360","Arop",-3.0698,142.12,602
"603","1361","Bebeli",-5.6328,150.323,603
"604","1391","Avau",-6.2434,150.427,604
"605","1392","Hote (Misim dialect)",-7.0771,146.869,605
"606","1394","Sissano (Arop dialect)",-3.0198,142.049,606
"607","1395","Akolet",-6.2271,150.182,607
"608","141","Wampar",-6.66733557666654,147.513427734375,608
"609","146","Wogeo",-3.22827101125264,144.102172851562,609
"610","168","Manam",-4,145,610
"611","23","Kis",-3.78204052821105,143.915405273438,611
"612","231","Numbami (Siboma)",-7.0520339099331,147.779025415929,612
"613","282","Kove",-5.47383188919279,148.9306640625,613
"614","285","Amara",-5.52851052569279,148.677978515625,614
"615","286","Mouk",-5.64878567984731,149.23828125,615
"616","287","Aria",-5.64878567984731,149.23828125,616
"617","30","Kairiru",-3.35440535760295,143.563842773438,617
"618","334","Yabem",-7.0520339099331,147.779025415929,618
"619","366","Takia",-4.69057,145.97454,619
"620","39","Ali",-3.28761,142.65902,620
"621","399","Megiar",-5.83022199781699,146.45411492278,621
"622","400","Matukar",-5.83022199781699,146.45411492278,622
"623","402","Bilibil",-5.83022199781699,146.45411492278,623
"624","497","Biliau",-5.59896,146.35521,624
"625","56","Kaulong (Au Village)",-6.18424616128059,149.677734375,625
"626","57","Kayupulau [Kajupulau]",-2.54415,140.62585,626
"627","67","Lamogai (Mulakaino)",-5.87071,149.32055,627
"628","7","Gedaged",-5.1237722999488,145.78857421875,628
"629","82","Maleu",-5.72,148.42,629
"630","91","Mengen",-5.22224651322738,151.435546875,630
"631","121","Seimat",-1.38963424765552,144.574584960938,631
"632","1371","Kaniet",-1.5178,145.086,632
"633","1372","Ninigo",-1.5297,145.074,633
"634","1373","Awa",-1.7394,142.851,634
"635","1374","Sori",-1.9838,146.642,635
"636","1375","Lup",-1.5289,145.075,636
"637","1376","Njada",-2.1143,146.627,637
"638","1377","Ponam",-1.917,146.887,638
"639","1378","Andra",-2.0589,147.085,639
"640","1379","Hus",-2.0589,147.085,640
"641","1380","Jiriw",-2.1427,147.202,641
"642","1381","Pitilu",-1.9665,147.226,642
"643","1382","Bujan",-2.0916,147.064,643
"644","1383","Mokaren",-2.016,147.423,644
"645","1384","Bipi",-2.1111,146.398,645
"646","1385","Lebei",-2.0663,146.746,646
"647","1386","Tulu",-2.1416,146.934,647
"648","1387","Pak",-2.0527,147.767,648
"649","1388","Mbunai",-2.1817,146.888,649
"650","1389","Baluan",-2.5604,147.282,650
"651","1393","Nyindrou",-2.1143,146.627,651
"652","148","Wuvulu",-1.60379443005897,142.97607421875,652
"653","510","Sivisa Titan",-2.18168,146.88795,653
"654","69","Leipon",-1.96891169260428,147.329406738281,654
"655","71","Levei",-2.07596,146.65375,655
"656","72","Likum",-2.43060571171546,147.416152188836,656
"657","73","Loniu",-2.07321686972869,147.332153320312,657
"658","74","Lou",-2.39432235753508,147.354125976562,658
"659","96","Nauna",-2.21319453229342,148.200073242188,659
"660","995","Papitalai",-2.0622,147.417,660
"661","1013","Lapwangtoai",-19.5795,169.356,661
"662","1014","Sie",-18.8181,169.166,662
"663","1028","Kwamera (Isiai)",-19.5954,169.442,663
"664","1039","Ikiti",-19.5795,169.356,664
"665","1043","Ikiyau",-19.5795,169.356,665
"666","1046","Lenakel",-19.4763,169.261,666
"667","1063","Lenakel (Lenaukas)",-19.4763,169.261,667
"668","1082","Kwamera (Yatukwey)",-19.5954,169.442,668
"669","1083","Tanna, North",-19.3733,169.303,669
"670","1095","Whitesands (Loniel)",-19.5019,169.381,670
"671","11","Fijian (Bau)",-17.8114560885645,177.978515625,671
"672","1112","Lenakel (Lonasilian)",-19.4763,169.261,672
"673","1127","Kwamera (Port Resolution)",-19.5954,169.442,673
"674","1139","Whitesands (Iarkei)",-19.5019,169.381,674
"675","1141","Ura",-18.6747,169.084,675
"676","1147","Enfitena",-19.5795,169.356,676
"677","1148","Imreang",-19.5795,169.356,677
"678","1155","Aneityum",-20.1864,169.825,678
"679","116","Rotuman",-12.7863633858312,177.138087277041,679
"680","1486","Iai",-20.6301,166.59,680
"681","149","Anejom (Aneityum)",-20.1900350958226,169.82666015625,681
"682","1494","Ne<U+014B>one",-21.5305,167.964,682
"683","1515","nDe’u",-20.8892,167.229,683
"684","162","Lenakel",-19.4665922322076,169.238891601562,684
"685","196","Dehu",-20.9819567428323,167.2119140625,685
"686","228","Tanna, Southwest",-19.5804934792025,169.354248046875,686
"687","463","Sye (Erromangan)",-18.9492577635907,169.61731364078,687
"688","464","Ura",-18.9492577635907,169.61731364078,688
"689","471","Iaai",-20.65335,166.56647,689
"690","477","Kwamera",-19.5162550257512,169.462500377383,690
"691","512","Western Fijian (Navosa)",-17,177.3,691
"692","653","Fijian (Suva Dialect)",-16.55711,179.24208,692
"693","99","Nengone",-21.5348470020488,167.98095703125,693
"694","102","Nggela",-9.08,160.25,694
"695","184","Santa Ana",-10.83651,162.46754,695
"696","213","Kwara'ae (Solomon Islands')",-8.68963906812765,160.77392578125,696
"697","221","Sa'a",-9.79567758282973,161.982421875,697
"698","223","To'ambaita",-9.8264092523997,161.896610150297,698
"699","37","Bughotu",-8.49410453755188,159.80712890625,699
"700","469","Tolo",-9.8264092523997,161.896610150297,700
"701","500","Arosi",-10.25,161.333333,701
"702","514","Kahua (Mami)",-10.69634,162.19059,702
"703","515","Kahua",-10.69634,162.19059,703
"704","516","Tawaroga",-10.69634,162.19059,704
"705","517","Fagani",-10.44791,161.6618,705
"706","520","Lengo (Paripao)",-9.56425,160.42011,706
"707","531","Lengo (Ghaimuta)",-9.56425,160.42011,707
"708","532","Dori'o",-9.11536,160.89663,708
"709","533","Sa'a (Ulawa)",-9.616667,161.45,709
"710","534","Sa'a (Uki Ni Masi)",-9.616667,161.45,710
"711","537","Ghari (Nggae)",-9.4791,159.91736,711
"712","538","Ghari (Ndi)",-9.4791,159.91736,712
"713","539","Ghari (Nggeri)",-9.4791,159.91736,713
"714","540","Ghari (Tandai)",-9.4791,159.91736,714
"715","541","Ghari (Nginia)",-9.4791,159.91736,715
"716","542","Malango",-9.61383,160.11784,716
"717","543","Talise (Koo)",-9.76764,160.231,717
"718","544","Talise (Malagheti)",-9.76764,160.231,718
"719","545","Talise (Moli)",-9.76764,160.231,719
"720","546","Talise (Poleo)",-9.76764,160.231,720
"721","547","Talise",-9.76764,160.231,721
"722","548","Mbirao",-9.73716,160.52035,722
"723","549","Langalanga",-8.81936,160.74125,723
"724","550","Kwai",-8.74742,161.02303,724
"725","556","Fagani (Rihu'a)",-10.44791,161.6618,725
"726","557","Oroha",-9.7386,161.51281,726
"727","558","Santa Catalina",-10.82553,162.30467,727
"728","561","Longgu",-9.75,160.666667,728
"729","563","Lengo",-9.56425,160.42011,729
"730","564","Mbaelelea",-8.41627,160.72097,730
"731","565","Mbaengguu",-8.49014,160.77123,731
"732","566","Fataleka",-8.59041,160.86142,732
"733","567","Bauro (Haununu)",-10.58257,161.86319,733
"734","568","Marau (Guadalcanal)",-9.20699,161.158,734
"735","570","Fagani (Agufi)",-10.44791,161.6618,735
"736","572","Rawo",-2.833333,141.583333,736
"737","575","Sa'a (Sa'a Village)",-9.616667,161.45,737
"738","576","Sa'a (A'ulu Village)",-9.616667,161.45,738
"739","579","Mbughotu (Dhadhaje)",-8.47948,159.80177,739
"740","581","Bauro (Pawa Village)",-10.58257,161.86319,740
"741","582","Bauro (Baroo Village)",-10.58257,161.86319,741
"742","583","Arosi (Oneibia Village)",-10.25,161.333333,742
"743","584","Arosi (Tawatana Village)",-10.25,161.333333,743
"744","585","'Are'are (Ma'asupa Village)",-9.25,161.166667,744
"745","586","'Are'are (Waiahaa Village)",-9.25,161.166667,745
"746","587","Lau (Walade)",-9.583333,161.5,746
"747","588","Lau (North)",-9.583333,161.5,747
"748","66","Kwaio",-9.05870215639213,161.0595703125,748
"749","68","Lau",-7.8960295932731,160.6201171875,749
"750","9","Ghari",-9.36235282205559,159.697265625,750
"751","105","Nissan",-4.59088225038226,154.206597633045,751
"752","117","Roviana",-8.25498270487786,157.32421875,752
"753","1202","Bola",-5.5579,150.095,753
"754","1203","Bulu",-5.0613,150.101,754
"755","1205","Meramera",-4.9747,151.528,755
"756","129","Tabar",-3.28697764528902,151.651036159741,756
"757","131","Tangga",-3.46955730306146,153.226318359375,757
"758","1340","Label",-4.4697,152.678,758
"759","1341","Ramoaaina",-4.1731,152.451,759
"760","1342","Sursurunga",-3.9908,152.768,760
"761","1349","Bali-Vitu",-4.8938,149.141,761
"762","135","Tigak",-2.64676323074096,150.611572265625,762
"763","139","Vaghua",-6.67551952902459,156.46728515625,763
"764","140","Vitu",-4.85071989271819,150.005982471755,764
"765","171","Madak (Lamasong Dial.)",-4.04342622844082,152.266393626474,765
"766","176","Nakanai (Bileki Dialect)",-5.50663967435489,150.46875,766
"767","178","Patpatar",-3.71078200434872,152.4462890625,767
"768","182","Ririo",-6.88280024176756,156.86279296875,768
"769","187","Teop",-5.72705323593056,155.030100110907,769
"770","191","Varisi",-6.81735282262214,156.55517578125,770
"771","209","Cheke Holo",-8.29847029706735,159.6533203125,771
"772","21","Kilokaka (Ysabel)",-8.20605,159.32922,772
"773","225","Taiof",-5.74325805829892,155.178353833599,773
"774","234","Zabana (Kia)",-7.77630850377619,158.79638671875,774
"775","281","Lakalai",-5,151,775
"776","359","Tungag / Tungak / Lavongai",-2.55,150.25,776
"777","363","Sisingga",-7.25622,157.22809,777
"778","364","Siar",-4.04342622844082,152.266393626474,778
"779","365","Kokota",-8,159.13,779
"780","368","Nalik",-3.72492858395654,152.118582078314,780
"781","370","Nalik",-3.72492858395654,152.118582078314,781
"782","372","Madara",-2.64128,151.97937,782
"783","377","Haku",-5.06832,154.59388,783
"784","382","Tolai",-4.25,152.08,784
"785","383","Madak",-4.04342622844082,152.266393626474,785
"786","384","Kara (West)",-2.83,151.12,786
"787","385","Lihir (Sunglik)",-3.18895,152.60632,787
"788","386","Lunga Lunga  (Minigir)",-4.21357,152.01027,788
"789","387","Barok",-4.04342622844082,152.266393626474,789
"790","388","Kandas",-4.04342622844082,152.266393626474,790
"791","390","Torau",-5.89078468421825,155.211915129668,791
"792","391","Tiang",-3.2115170197835,151.090990842961,792
"793","392","Bilur",-4.48552557451467,153.408911795637,793
"794","394","Maututu",-5.58,150.58,794
"795","398","Solos",-4.88450498829041,154.480658485549,795
"796","4","Banoni",-6.51181470634789,155.28076171875,796
"797","44","Babatana",-7.18810087117902,157.08251953125,797
"798","472","Nehan",-4.59088225038226,154.206597633045,798
"799","473","Simbo",-8.26925,156.53732,799
"800","474","Uruava",-6.23314,155.57304,800
"801","508","Kubokota",-8.02035,156.55189,801
"802","509","Luqa",-8.17469,156.57264,802
"803","518","Ughele",-8.45725,157.3407,803
"804","521","Nduke",-7.97768,157.06392,804
"805","522","Babatana (Katazi)",-7,156.833333,805
"806","525","Ghanongga",-8.02035,156.55189,806
"807","528","Kusaghe",-8.04056,157.46268,807
"808","529","Mono (Fauro)",-7.05,155.75,808
"809","530","Mono (Alu)",-7.05,155.75,809
"810","535","Vangunu",-8.66826,157.99717,810
"811","536","Babatana (Avasö)",-7,156.833333,811
"812","54","Hoava",-8.11361508149333,157.56591796875,812
"813","551","Varisi (Ghone)",-6.83443,156.65519,813
"814","552","Babatana (Lömaumbi)",-7,156.833333,814
"815","553","Laghu (Samasodu)",-8.00509,158.96112,815
"816","554","Mbareke",-8.66826,157.99717,816
"817","555","Nggao (Poro)",-8.35163,159.78866,817
"818","560","Kazukuru",-8.23886,157.6873,818
"819","562","Lungga",-8.17469,156.57264,819
"820","569","Babatana (Tunöe)",-7,156.833333,820
"821","571","Sengga",-7,156.833333,821
"822","573","Maringe (Tataba)",-8.333333,159.66667,822
"823","574","Maringe (Leleghia)",-8.433333,159.766667,823
"824","577","Maringe (Kmagha)",-8.533333,159.866667,824
"825","578","Blablanga (Ghove)",-8.15058,159.41863,825
"826","580","Blablanga",-8.15058,159.41863,826
"827","647","Halia (Selau)",-5.26603,154.66185,827
"828","81","Mono",-7.05,155.75,828
"829","858","Piva",-6.152,155.129,829
"830","87","Marovo",-8.78193952103597,158.186645507812,830
"831","98","Nehan Hape",-4.48607103437042,154.215087890625,831
"832","998","East Kara (Lemakot)",-2.8196,151.111,832
"833","224","Teanu",-11.6361,166.89331,833
"834","352","Nembao",-11.27,166.45111,834
"835","353","Asumboa",-11.24845,166.47583,835
"836","354","Tanimbili",-11.2902,166.52664,836
"837","355","Buma",-11.63,166.83,837
"838","356","Vano",-11.66972,166.87683,838
"839","357","Tanema",-11.67645,166.82602,839
"840","501","Äiwoo",-10.25276,166.19568,840
"841","502","Nanggu",-10.71459,165.92651,841
"842","504","Malo, Santa Cruz",-10.49591,165.74249,842
"843","505","Lwepe, Santa Cruz",-10.6849,165.73425,843
"844","1187","Nyelâyu",-19.72,163.66,844
"845","1188","Houaïlou",-21.3029,165.468,845
"846","1369","Drubea",-22.0947,166.531,846
"847","1480","Nyelâyu (Belep Dialect)",-19.72,163.66,847
"848","1482","Ajiø",-21.3029,165.468,848
"849","1483","Anesù",-21.7034,165.996,849
"850","1484","Aro",-21.3183,165.161,850
"851","1485","Ar<U+0283>a",-21.2866,165.273,851
"852","1487","nDu<U+1D50>bea",-22.0947,166.531,852
"853","1488","Jawe",-20.6648,164.676,853
"854","1489","Kapone",-22.2689,166.705,854
"855","1490","Koumac",-20.4035,164.193,855
"856","1491","Moene<U+1D50>be<U+014B>",-20.4114,164.578,856
"857","1492","Neku",-21.6524,165.578,857
"858","1493","Nenema",-20.4035,164.193,858
"859","1495","N<U+025B>mi",-20.6791,164.797,859
"860","1496","Pat<U+032A>i",-21.096,165.15,860
"861","1497","Pinje",-20.7824,164.942,861
"862","1498","Poai",-20.6873,164.901,862
"863","1499","Poamei",-20.8442,164.77,863
"864","1500","Poapoã",-20.8133,164.556,864
"865","1501","Sirehë",-21.6544,165.482,865
"866","1502","Wamoa<U+014B>",-20.5014,164.409,866
"867","1503","camuki",-20.8489,165.13,867
"868","1504","Ciri",-21.8147,165.792,868
"869","1505","<U+0272>ua",-20.5664,164.51,869
"870","1506","<U+029D>alasu",-20.25,164.2,870
"871","1507","<U+02B0>Moaek<U+025B>",-20.7708,165.04,871
"872","1508","<U+02B0>Moavek<U+025B>",-20.9246,164.768,872
"873","1509","<U+1D50>Belep",-19.72,163.66,873
"874","1510","<U+1D50>Bonnde",-20.5664,164.51,874
"875","1511","<U+1D50>Boewe",-21.6269,165.473,875
"876","1512","‘Aragùr<U+025B>",-21.8223,166.376,876
"877","1513","’Aek<U+025B>",-21.0735,164.869,877
"878","1514","’Avek<U+025B>",-21.0249,164.753,878
"879","19","Canala",-21.67,166,879
"880","212","Jawe",-20.6430655467265,164.77294921875,880
"881","76","Nêlêmwa",-20.25,164.08,881
"882","1180","Ulithian",9.9614,139.6036,882
"883","169","Marshallese (E. Dialect)",7.87763837400782,171.596844971193,883
"884","174","Pulo Anna",4.72352468172097,132.098595397709,884
"885","175","Chuukese",7.57584198321025,151.961399557619,885
"886","179","Ponapean",5.63347995011737,159.008384518223,886
"887","198","Woleai",7.9621864319533,146.25381429925,887
"888","201","Carolinian",15,146,888
"889","336","Puluwatese",7.33,149.33,889
"890","337","Pulo-Annan",4.72352468172097,132.098595397709,890
"891","338","Saipan Carolinian",15.3384618054491,147.358840425045,891
"892","339","Saipan Carolinian Tanapag",15.4437558996518,146.562665448462,892
"893","342","Mokilese",5.82747701360214,161.719829148869,893
"894","343","Satawalese",7.9621864319533,146.25381429925,894
"895","344","Marshallese",7.87763837400782,171.596844971193,895
"896","345","Mortlockese",6.53199183495729,155.769306852686,896
"897","346","Kiribati",-1.09129174695414,172.110425708816,897
"898","347","Woleaian",7.9621864319533,146.25381429925,898
"899","349","Chuukese",7.57584198321025,151.961399557619,899
"900","498","Pingilapese",6.216667,160.7,900
"901","499","Sonsorolese",5.333333,132.25,901
"902","65","Kusaie",5.3,163,902
"903","794","Pingilapese",6.216667,160.7,903
"904","923","Mortlockese (Lukunosh)",5.5073,153.7108,904
"905","97","Nauru",-1.11153781957284,166.528582279545,905
"906","1025","Dixon Reef",-16.3267,167.516,906
"907","1029","Neve'ei",-16.2253,167.427,907
"908","1034","Larevat",-16.1971,167.387,908
"909","1047","Labo (Ninde)",-16.4291,167.442,909
"910","1049","Lorediakarkar",-15.3348,167.1663,910
"911","1051","Labo (Windua)",-16.4291,167.442,911
"912","1052","Maragus",-16.0695,167.33,912
"913","1053","Litzlitz",-16.1331,167.415,913
"914","1057","Dixon Reef",-16.3267,167.516,914
"915","1062","Repanbitipmbangir",-16.3265,167.619,915
"916","1064","Shark Bay",-15.2553,167.1389,916
"917","1087","Timbembe",-16.2701,167.484,917
"918","1099","Letemboi",-16.4339,167.566,918
"919","1100","Butmas-Tur (Butmas)",-15.3353,167.034,919
"920","1109","Katbol",-16.2701,167.484,920
"921","1118","Butmas-Tur (Tur)",-15.3353,167.034,921
"922","1133","Sakao",-15.0757,167.051,922
"923","1140","Neverver",-16.1986,167.499,923
"924","1151","Polonombauk",-15.2553,167.1389,924
"925","1164","V'ënen Taut (Unmet)",-16.0903,167.239,925
"926","1169","V'ënen Taut (Leviamp)",-16.0903,167.239,926
"927","1174","Shark Bay",-15.2553,167.1389,927
"928","1216","Ninde (Opmomba)",-16.4291,167.442,928
"929","1217","Ninde (Lawa)",-16.4291,167.442,929
"930","1218","Ninde (Lorlo)",-16.4291,167.442,930
"931","1219","Ninde (Labo)",-16.4291,167.442,931
"932","1220","Ninde (Windua)",-16.4291,167.442,932
"933","1221","Avava (Tisvel)",-16.2701,167.484,933
"934","1222","Avava (Khatbol)",-16.2701,167.484,934
"935","1223","Avava (Timbibi)",-16.2701,167.484,935
"936","1224","Avava (Banga<U+02D0>sak)",-16.2701,167.484,936
"937","1225","Salang (Dixon Reef)",-16.2701,167.484,937
"938","1229","Na:ti (Windua)",-16.4687,167.4961,938
"939","1230","Nombotkote (Usus - Melkin)",-16.4339,167.566,939
"940","1231","Nombotkote (Blacksands)",-16.4339,167.566,940
"941","1232","Nombotkote (Melaklak (Melkin))",-16.4339,167.566,941
"942","1233","Letemboi (Aingelemolesa)",-16.4339,167.566,942
"943","1234","Letemboi (Natingatlang North)",-16.4339,167.566,943
"944","1235","Letemboi (Nevatanyene)",-16.4339,167.566,944
"945","1236","Letemboi (Newotenyene)",-16.4339,167.566,945
"946","1237","Nasarian (Wileven tu)",-16.3497,167.414,946
"947","1239","Novol (Usus - Dixon Reef)",-16.4339,167.566,947
"948","1240","Novol (Usus - Dixon Reef)",-16.4339,167.566,948
"949","1241","Novol (Usus - Dixon Reef)",-16.4339,167.566,949
"950","1242","Novol (Melaklak)",-16.4339,167.566,950
"951","1243","Neverver (Lingarak - Mindu)",-16.1986,167.499,951
"952","1244","Neverver (Lingarak - Sakan)",-16.1986,167.499,952
"953","1249","Neve'ei (Vinmavis)",-16.2253,167.427,953
"954","1250","Neve'ei (Vinmavis)",-16.2253,167.427,954
"955","1253","Fifti (Khatbol)",-16.2701,167.484,955
"956","1254","Nitita (Khatbol)",-16.2701,167.484,956
"957","1255","Tape (Tautu)",-16.0695,167.33,957
"958","1256","Naman (Litzlitz)",-16.1331,167.415,958
"959","1283","Maraxus",-16.0695,167.33,959
"960","1284","Venen Taute (Unmet)",-16.0903,167.239,960
"961","1287","Venen Taute (Hamax)",-16.0903,167.239,961
"962","1293","Nisvai (Blacksands)",-16.4131,167.7856,962
"963","1300","Venen Taute (Alpalak)",-16.0903,167.239,963
"964","1397","Natangan (Mbonvor) 162-86",-16.4339,167.566,964
"965","1404","Nasvang (Farun) 162-93",-16.4582,167.6396,965
"966","1405","Natangan (Farun) 162-95b",-16.4339,167.566,966
"967","1408","Nasvang (Farun) 162-90",-16.4582,167.6396,967
"968","1416","Nasvang (Farun - children) 162-96",-16.4582,167.6396,968
"969","1420","Nasvang (Farun) 162-95a",-16.4582,167.6396,969
"970","230","Sakao (Port-Olry)",-15.077427674848,167.019653320312,970
"971","456","Avava",-16.24368,167.47009,971
"972","457","Naman",-16.13818,167.45087,972
"973","460","Tape",-16.05109,167.25037,973
"974","484","Neve'ei",-16.2305,167.40967,974
"975","1000","Lelepa",-17.6042,168.202,975
"976","1005","Araki",-15.633,166.9525,976
"977","1006","Roria",-15.4048,166.843,977
"978","1007","Bierebo (Yevali)",-16.6663,168.154,978
"979","1008","Lamenu (Visina)",-16.6098,168.171,979
"980","1010","Akei (Penantsiro)",-15.6377,166.767,980
"981","1011","Tutuba",-15.4913,167.218,981
"982","1015","Vunapu",-14.8477,166.691,982
"983","1020","Malo (South)",-15.6835,167.16,983
"984","1022","Bierebo (Burupika)",-16.6663,168.154,984
"985","1023","Akei",-15.6377,166.767,985
"986","1024","Morouas (Batunlamak)",-15.3498,166.891,986
"987","1027","Tangoa",-15.5643,166.958,987
"988","103","Nguna",-17.4397629500525,168.379618175383,988
"989","1031","Bieria (Vowa)",-16.7867,168.232,989
"990","1033","Baki",-16.7096,168.165,990
"991","1036","Piamatsina",-14.9959,166.738,991
"992","1040","Namakura (Makura)",-16.8979,168.569,992
"993","1041","Bierebo (Bonkovia)",-16.6663,168.154,993
"994","1042","Amblong",-15.5169,166.95,994
"995","1044","Lamenu (Nuvi)",-16.6098,168.171,995
"996","1048","Malo (North)",-15.6835,167.16,996
"997","1056","Narango (Nambel)",-15.5259,167.047,997
"998","1060","Lamenu (Nikaura)",-16.6098,168.171,998
"999","1068","Aore",-15.5753,167.166,999
"1000","1072","Wusi (Valui)",-15.2786,166.696,1000
"1001","1074","Namakura (Mataso)",-16.8979,168.569,1001
"1002","1075","Maii",-16.7388,168.211,1002
"1003","1076","Efate, North (Siviri)",-17.5774,168.375,1003
"1004","1078","Efate, North (Pwele)",-17.5774,168.375,1004
"1005","1079","Akei (Tasiriki)",-15.6377,166.767,1005
"1006","1084","Tambotalo",-15.5004,167.139,1006
"1007","1088","Eton",-17.74,168.549,1007
"1008","1090","Lamenu (Mapremo)",-16.6098,168.171,1008
"1009","1091","Namakura (Tongariki)",-16.8979,168.569,1009
"1010","1097","Lelepa",-17.6042,168.202,1010
"1011","1098","Efate, North (Woraviu)",-17.5774,168.375,1011
"1012","1101","Morouas",-15.3498,166.891,1012
"1013","1103","Lamenu (Nul)",-16.6098,168.171,1013
"1014","1106","Lelepa (Pango)",-17.6042,168.202,1014
"1015","1107","Lamenu",-16.6098,168.171,1015
"1016","1108","Tasmate",-15.0792,166.664,1016
"1017","1110","Efate, South (Eratap)",-17.7006,168.377,1017
"1018","1113","Navut (Matae)",-15.3169,166.798,1018
"1019","1114","Wailapa",-15.5656,166.902,1019
"1020","1115","Navut",-15.3169,166.798,1020
"1021","1117","Tiale",-15.2334,166.842,1021
"1022","1120","Namakura (Bongabonga)",-16.8979,168.569,1022
"1023","1122","Wusi (Mana)",-15.2786,166.696,1023
"1024","1124","Efate, North (Sesake)",-17.5774,168.375,1024
"1025","1125","Mafea",-15.4316,167.241,1025
"1026","1126","Lamenu (Mate)",-16.6098,168.171,1026
"1027","1132","Wusi (Kerepua)",-15.2786,166.696,1027
"1028","1135","Lamenu (Filakara)",-16.6098,168.171,1028
"1029","1138","Valpei",-14.712,166.606,1029
"1030","1149","Valpei (Hukua)",-14.712,166.606,1030
"1031","1152","Tolomako",-15.1569,166.772,1031
"1032","1154","Narango",-15.5259,167.047,1032
"1033","1157","Efate, North (Nguna)",-17.5774,168.375,1033
"1034","1158","Merei",-15.2839,166.905,1034
"1035","1166","Nokuku",-14.8974,166.603,1035
"1036","1167","Fortsenal",-15.4484,166.931,1036
"1037","1177","Bierebo (Tavio)",-16.6663,168.154,1037
"1038","1179","Wusi (Nonona)",-15.2786,166.696,1038
"1039","322","South Efate",-17.7486866517288,168.491821289062,1039
"1040","465","Araki (Southwest Santo)",-15.67,166.92,1040
"1041","470","Merei",-15.33187,166.8988,1041
"1042","475","Namakir",-17.0967026510254,168.727337973694,1042
"1043","1003","Paama (Lironesa)",-16.4755,168.2369,1043
"1044","1016","Ambrym, North (Ranon)",-16.1741,168.14,1044
"1045","1017","Mwerlap (Merig)",-14.4213,168.039,1045
"1046","1019","Lakona",-14.213,167.472,1046
"1047","1021","Ambrym, Southeast (Maat)",-16.2975,168.211,1047
"1048","1026","Lonwolwol",-16.2286,168.016,1048
"1049","1032","Koro",-14.2943,167.467,1049
"1050","1037","Seke",-15.8839,168.197,1050
"1051","1038","Daakaka (Baiap)",-16.2696,168.013,1051
"1052","1050","Ambae, East (Lolsiwoi)",-15.3523,167.89,1052
"1053","1058","Hiw",-13.1391,166.556,1053
"1054","1059","Paama (Faulili)",-16.4755,168.2369,1054
"1055","1065","Vurës (Mosina)",-13.8746,167.516,1055
"1056","1067","Baetora (Nasawa)",-15.2574,168.159,1056
"1057","1070","Baetora",-15.2574,168.159,1057
"1058","1073","Daakaka (Sesivi)",-16.2696,168.013,1058
"1059","1077","Vera'a (Vatrata)",-13.8096,167.475,1059
"1060","108","Paamese (South)",-16.5203659124421,168.338012695312,1060
"1061","1080","Maewo, Central (Peterara)",-15.0784,168.135,1061
"1062","1086","Marino",-14.9738,168.12,1062
"1063","1089","Baetora (Tam)",-15.2574,168.159,1063
"1064","1092","Mota",-13.8485,167.6949,1064
"1065","1104","Vurës (Vetumboso)",-13.8746,167.516,1065
"1066","111","Peterara (Maewo)",-15.1251588785853,168.145751953125,1066
"1067","1111","Mwerlap (Merlav)",-14.4213,168.039,1067
"1068","1116","Ambae, East (Wailengi)",-15.3523,167.89,1068
"1069","1123","Löyöp",-13.5406,167.336,1069
"1070","1128","Port Vato",-16.3083,168.046,1070
"1071","1129","Dorig",-14.2916,167.55,1071
"1072","113","Raga",-15.6248460642799,169.016196325761,1072
"1073","1130","Mwotlap",-13.6535,167.673,1073
"1074","1131","Ambrym, North (Fonah)",-16.1741,168.14,1074
"1075","1134","Wetamut",-14.2916,167.55,1075
"1076","1136","Lemerig (Bek)",-13.7427,167.436,1076
"1077","1137","Ambae, East (Lolomatui)",-15.3523,167.89,1077
"1078","1142","Ambrym, Southeast (Toak)",-16.2975,168.211,1078
"1079","1143","Paama (Laul)",-16.4755,168.2369,1079
"1080","1144","Ambae, West (Ngwatua)",-15.4281,167.807,1080
"1081","1145","Baetora (Navenevene)",-15.2574,168.159,1081
"1082","1153","Toga",-13.252,166.613,1082
"1083","1156","Baetora (Narovorovo)",-15.2574,168.159,1083
"1084","1162","Apma",-15.8559,168.189,1084
"1085","1165","Raga",-15.5432,168.167,1085
"1086","1168","Lehali",-13.5043,167.332,1086
"1087","1171","Sa",-15.9534,168.228,1087
"1088","1172","Nume",-14.209,167.562,1088
"1089","1173","Sowa",-15.8265,168.1865,1089
"1090","1175","Lemerig (Sasar)",-13.7427,167.436,1090
"1091","120","Ambrym, South-East",-16.3095955177422,168.255615234375,1091
"1092","25","Mota",-13.7247389269407,168.213678544669,1092
"1093","376","Mwotlap",-13.4556689744198,167.907176579306,1093
"1094","476","Orkon",-16.24896,168.02765,1094
"1095","639","Hiw",-13.13907,166.55592,1095
"1096","641","Apma (Suru Mwerani)",-15.85593,168.18897,1096
"1097","642","Apma (Suru Kavian)",-15.85593,168.18897,1097
"1098","643","Sa (south-eastern dialect)",-15.95342,168.22772,1098
"1099","644","Sowa",-15.82653,168.18653,1099
"1100","645","Ske (Seke)",-15.8839,168.19662,1100
"1101","1001","Vao",-15.8983,167.31,1101
"1102","1002","Maskelynes",-16.5073,167.818,1102
"1103","1009","Mpotovoro",-15.8988,167.232,1103
"1104","1012","Uripiv-Wala-Rano-Atchin (Uripiv)",-16.0095,167.3464,1104
"1105","1018","Uripiv-Wala-Rano-Atchin (Rano)",-16.0095,167.3464,1105
"1106","1035","Axamb (Maxbaxo)",-16.4838,167.707,1106
"1107","1045","Mae (Orap)",-15.9914,167.288,1107
"1108","1054","Uripiv-Wala-Rano-Atchin (Tautu)",-16.0095,167.3464,1108
"1109","1061","Nahavaq (Lembinwen)",-16.5116,167.477,1109
"1110","1066","Unua",-16.2638,167.599,1110
"1111","1069","Uripiv-Wala-Rano-Atchin (Uri)",-16.0095,167.3464,1111
"1112","1081","Banam Bay (Vartavo)",-16.4165,167.7312,1112
"1113","1085","Port Sandwich",-16.4952,167.78,1113
"1114","1093","Aulua",-16.3579,167.697,1114
"1115","1094","Axamb (Avok)",-16.4838,167.707,1115
"1116","1096","Malua Bay",-15.9813,167.208,1116
"1117","1102","Naha'ai",-16.5499,167.509,1117
"1118","1105","Uripiv-Wala-Rano-Atchin (Atchin)",-16.0095,167.3464,1118
"1119","1121","Banam Bay (Burmbar)",-16.4165,167.7312,1119
"1120","1146","Uripiv-Wala-Rano-Atchin (Wala)",-16.0095,167.3464,1120
"1121","1150","Rerep",-16.2934,167.651,1121
"1122","1159","Mae",-15.9914,167.288,1122
"1123","1160","Banam Bay (Lepaxsivir)",-16.4165,167.7312,1123
"1124","1161","Nahavaq (Benour)",-16.5116,167.477,1124
"1125","1170","Uripiv-Wala-Rano-Atchin (Pinalum)",-16.0095,167.3464,1125
"1126","1176","Axamb",-16.4838,167.707,1126
"1127","1178","Malua Bay (Petarmur)",-15.9813,167.208,1127
"1128","1226","Nahavaq (Caroline Bay)",-16.5116,167.477,1128
"1129","1227","Nahavaq (Benour)",-16.5116,167.477,1129
"1130","1228","Nahavaq (Lembinwin)",-16.5116,167.477,1130
"1131","1245","Pangkumu (Ndarmif)",-16.2934,167.651,1131
"1132","1246","Pangkumu (Datisman)",-16.2934,167.651,1132
"1133","1247","Unua (Noferai)",-16.2638,167.599,1133
"1134","1248","Unua (Mbatumbo)",-16.2638,167.599,1134
"1135","1282","Aulua (Loxse Lanfitfit)",-16.3579,167.697,1135
"1136","1285","Vao (Torono)",-15.8983,167.31,1136
"1137","1288","Aulua (Netimb)",-16.3579,167.697,1137
"1138","1289","Aitchin (Orap)",-16.0095,167.3464,1138
"1139","1290","Malua Bay (Petarmul 1)",-15.9813,167.208,1139
"1140","1291","Tirax (Bakru)",-15.9914,167.288,1140
"1141","1292","Burmbar (Fartavo)",-16.4165,167.7312,1141
"1142","1294","Uripiv (D'urpif 1)",-16.0095,167.3464,1142
"1143","1296","Tirax (Olamb)",-15.9914,167.288,1143
"1144","1297","Uripiv (D'urpif 2",-16.0095,167.3464,1144
"1145","1298","Wala (Botku)",-16.0095,167.3464,1145
"1146","1299","Wala (Worprev A)",-16.0095,167.3464,1146
"1147","1301","Rano (Chinambong)",-16.0095,167.3464,1147
"1148","1302","Rano (Small Island)",-16.0095,167.3464,1148
"1149","1303","Rano (Potora)",-16.0095,167.3464,1149
"1150","1304","Vao (Peteri)",-15.8983,167.31,1150
"1151","1306","Uripiv (Potnambwe)",-16.0095,167.3464,1151
"1152","1308","Espiegels' Bay (Shore)",-15.9813,167.208,1152
"1153","1311","Espiegel's Bay (Litebral)",-15.9813,167.208,1153
"1154","1312","Malua Bay (Petarmul 2)",-15.9813,167.208,1154
"1155","1315","Aitchin (Small Island)",-16.0095,167.3464,1155
"1156","1317","Tirax (Mae A)",-15.9914,167.288,1156
"1157","1318","Malua Bay (Marasup)",-15.9813,167.208,1157
"1158","1319","Tirax (Mae B)",-15.9914,167.288,1158
"1159","1320","Burmbar",-16.4165,167.7312,1159
"1160","1321","Port Sandwich (Lamap 1)",-16.4952,167.78,1160
"1161","1323","Malua Bay (TipTir)",-15.9813,167.208,1161
"1162","1324","Aulua (Loxse Asolokh)",-16.3579,167.697,1162
"1163","1325","Wala (Worprev B)",-16.0095,167.3464,1163
"1164","1326","Port Sandwich (Lamap 2",-16.4952,167.78,1164
"1165","1327","Vao (Beetehul)",-15.8983,167.31,1165
"1166","1396","Na'ahai (Mbatvanui) 162-85",-16.5499,167.509,1166
"1167","1398","Axamb (Small Island-Brisbane) 162-89",-16.4838,167.707,1167
"1168","1399","Na'ahai (Mbatambang) 162-83",-16.5499,167.509,1168
"1169","1400","Avok (Hokai) 162-98",-16.4838,167.707,1169
"1170","1402","Na'axai (Malfaxal) 162-84",-16.5499,167.509,1170
"1171","1403","Uliveo (Palongk) 162-104",-16.5073,167.818,1171
"1172","1406","Na'ahai (Toman Island) 162-82",-16.5499,167.509,1172
"1173","1407","Avok (Shiaf)",-16.4838,167.707,1173
"1174","1409","Avok (Hokai) 162-97a",-16.4838,167.707,1174
"1175","1410","Axamb (Small Island-Maliambur) 162-88",-16.4838,167.707,1175
"1176","1412","Uliveo (Lurtes) 162-107",-16.5073,167.818,1176
"1177","1413","Axamb (Farun) 162-94",-16.4838,167.707,1177
"1178","1414","Uliveo (Pescaros) 162-106",-16.5073,167.818,1178
"1179","1417","Uliveo (Palongk) 162-103",-16.5073,167.818,1179
"1180","1418","Avok (Avok) 162-101",-16.4838,167.707,1180
"1181","1419","Uliveo (Peskaros) 162-105",-16.5073,167.818,1181
"1182","1421","Avok (Avok) 162-99",-16.4838,167.707,1182
"1183","453","Nahavaq",-16.4993,167.45361,1183
"1184","459","Nese",-16.06165,167.18719,1184
"1185","485","Nati",-16.45189,167.49756,1185
"1186","1004","Futuna-Aniwa (Aniwa)",-19.5303,170.215,1186
"1187","1030","Emae (Makatea)",-17.052,168.399,1187
"1188","1055","Mele",-17.6841,168.275,1188
"1189","1119","Futuna-Aniwa (Futuna)",-19.5303,170.215,1189
"1190","1163","Fila",-17.6841,168.275,1190
"1191","118","Samoan",-14,-170,1191
"1192","1207","Mangaia",-21.23,-159.78,1192
"1193","1212","Nukeria",-3.33333,154.75,1193
"1194","1213","Ra'ivavae",-23.3843,-149.462,1194
"1195","1214","Old Rapa (Rapa)",-27.6304,-144.338,1195
"1196","128","Rurutuan",-22.4032609605342,-151.178854036051,1196
"1197","130","Tahitian (18th Century)",-17.6361413556613,-149.414813251048,1197
"1198","136","Tongan",-21.2305021019564,-175.14404296875,1198
"1199","152","Pukapuka",-10.9247420638001,-165.843827624424,1199
"1200","155","Tikopia",-13.3825991097862,168.991005186142,1200
"1201","156","Futuna-Aniwa",-14.9867139802973,-177.390479650955,1201
"1202","163","Tuvalu",-8.52941682451236,179.184265136719,1202
"1203","173","Tahitian (Modern)",-17.6361413556613,-149.414813251048,1203
"1204","206","Rennellese",-11.0666978056568,160.785996159166,1204
"1205","210","Futuna, East",-14.7243335869605,-178.175776382809,1205
"1206","217","Kapingamarangi",1.05,154.75,1206
"1207","229","Emae",-17.0967026510254,168.727337973694,1207
"1208","235","Penrhyn",-9,-158,1208
"1209","238","Luangiua",-5.1974121191344,159.654401499906,1209
"1210","239","Mangareva",-21.587940101105,-136.381906829861,1210
"1211","242","Ifira-Mele (Mele-Fila)",-17.7329908495402,168.299560546875,1211
"1212","243","Sikaiana",-8.38543101556771,162.740478515625,1212
"1213","244","Takuu",-4.75,157.033333,1213
"1214","245","Tokelau",-8.95178497468883,-171.536554902738,1214
"1215","246","Tuamotu",-18.5148393344629,-140.600581936986,1215
"1216","247","Niue",-17.6564165732356,-169.592200912304,1216
"1217","253","Anuta",-11.610833,169.850278,1217
"1218","258","Uvea, East",-13.362214926141,-175.95894208137,1218
"1219","259","Uvea, West",-20.6430655467265,166.563720703125,1219
"1220","261","Futuna, West",-19.5776494945719,169.812397597848,1220
"1221","264","Rapanui (Easter Island)",-27.1178128423212,-109.371643066406,1221
"1222","375","Vaeakau-Taumako",-10.22,166.22,1222
"1223","38","Marquesan",-9,-140,1223
"1224","479","Maori (1773)",-35.0347799887453,172.808457286388,1224
"1225","481","Tahiti (1773)",-17.6361413556613,-149.414813251048,1225
"1226","52","Hawaiian",19.5597901364974,-155.478515625,1226
"1227","559","Bellona",-11.616667,160.25,1227
"1228","58","Rarotongan",-21.2785312509184,-159.746354973744,1228
"1229","589","Manihiki",-10.4,-161,1229
"1230","64","Nukuoro",3.83,154.92,1230
"1231","654","Marquesan (Nukuhiva dialect)",-8.89412,-140.10792,1231
"1232","659","Niuafo'ou",-15.60144,-175.63991,1232
"1233","664","Rapa",-27.63043,-144.33752,1233
"1234","675","Nuguria",-3.40038,154.73118,1234
"1235","753","Nanumea",-7.4778,178.69192,1235
"1236","763","South Island Maori",-40,176,1236
"1237","85","Maori",-35.7465122599185,174.0234375,1237
"1238",NA,"A",4.43404,114.33472,1238
"1239",NA,"Abaknon",12.41981,124.16679,1239
"1240",NA,"Acehnese",3.90757,96.60325,1240
"1241",NA,"Admiralty Islands",-2.00957066138638,146.537009021529,1241
"1242",NA,"Admiralty Islands",-2.00957066138638,146.537009021529,1242
"1243",NA,"Aklan",11.5338521915105,122.36572265625,1243
"1244",NA,"Amalumute",-3.07796030635209,128.283088067816,1244
"1245",NA,"Amara",-5.52851052569279,148.677978515625,1245
"1246",NA,"Ambon",-3.60809595824749,128.289581217161,1246
"1247",NA,"Amis",23.2656410617637,121.333224604167,1247
"1248",NA,"Aneityum",-20.1882175479113,169.825830078125,1248
"1249",NA,"Anuki",-9.6692,149.822,1249
"1250",NA,"Arawe",-6.0002,150.403,1250
"1251",NA,"Arawe-Pasismanua",-6.06883001525821,150.175893229167,1251
"1252",NA,"Are",-9.52982641558124,149.849126957553,1252
"1253",NA,"Are-Taupota",-9.84845618470277,150.169704203357,1253
"1254",NA,"Arta",16.4185,121.656,1254
"1255",NA,"Aru",-3.58824714285714,132.678428142857,1255
"1256",NA,"Astrolabe",-5.58576666666667,146.318,1256
"1257",NA,"Ata-Tigwa",7.66925666666667,124.289703333333,1257
"1258",NA,"Atayal",24.5270243064613,121.36175245,1258
"1259",NA,"Atayalic",24.344854312701,121.392928767187,1259
"1260",NA,"Babar",-8.17275042398686,129.648513072627,1260
"1261",NA,"Bakati'",1.05463,109.42383,1261
"1262",NA,"Baki-Bierebo",-16.67496,168.1562,1262
"1263",NA,"Balangaw",17.17,121.17,1263
"1264",NA,"Bali-Sasak-Sumbawa",-8.56910676396202,116.2813534375,1264
"1265",NA,"Bali-Vitu",-4.8722599463591,149.573491235878,1265
"1266",NA,"Banda-Geser",-4.5792100189792,131.779930069248,1266
"1267",NA,"Banton",12.51942,122.03419,1267
"1268",NA,"Bariai",-5.58581062973093,148.0795546875,1268
"1269",NA,"Barito-Mahakam",-1.20840649727186,116.03759765625,1269
"1270",NA,"Basay",24.1349018096479,121.885413133511,1270
"1271",NA,"Bashiic",20.8108271714186,121.893179375837,1271
"1272",NA,"Batak",2.09043446791019,98.9982616666667,1272
"1273",NA,"Bel",-5.42735166303634,146.181788089735,1273
"1274",NA,"Berawan",3.95194,114.64233,1274
"1275",NA,"Berawan-Lower Baram",4.19299,114.488525,1275
"1276",NA,"Biakic",-1.263843131735,134.757810767095,1276
"1277",NA,"Bibling",-5.72276045323154,149.265704166667,1277
"1278",NA,"Bidayuh",1.31824,110.34668,1278
"1279",NA,"Bieria-Maii",-16.76275,168.2215,1279
"1280",NA,"Bikol",13.425344,123.37844,1280
"1281",NA,"Bilic",6.18372524958126,124.817334524554,1281
"1282",NA,"Bima-Lembata",-8.8275,121.121,1282
"1283",NA,"Bima-Sumba",-9.44475792841152,120.450282403878,1283
"1284",NA,"Bintulu",2.96882635733302,112.440793931919,1284
"1285",NA,"Bisayan",9.67257245580362,125.235809643979,1285
"1286",NA,"Blaan",6.02873320420004,125.18509090625,1286
"1287",NA,"Bobot",-3.4128500284688,130.287995103872,1287
"1288",NA,"Bontok",17.03731,121.01016,1288
"1289",NA,"Bontok-Kankanay",16.9729785379336,120.935867643591,1289
"1290",NA,"Borneo Coast Bajaw",-3.2020258747799,121.906215376953,1290
"1291",NA,"Buang",-6.9199,146.639,1291
"1292",NA,"Bughotu",-8.48679226877594,159.804449453125,1292
"1293",NA,"Bugis",-1.7747327829538,116.046431504101,1293
"1294",NA,"Buhid-Taubuid",12.6396,121.21,1294
"1295",NA,"Buka",-5.167175,154.627865,1295
"1296",NA,"Bungku-Tolaki",-3.10180007091105,121.704193440755,1296
"1297",NA,"Bunun",23.3384218096479,121.469583133511,1297
"1298",NA,"Buru",-3.5,126.5,1298
"1299",NA,"Butuan-Tausug",7.28710480334044,123.343405647186,1299
"1300",NA,"Bwaidoga",-9.46898625125168,150.411952041016,1300
"1301",NA,"C'uli'",24.5226710599103,121.340523942708,1301
"1302",NA,"Cagayan Valley",17.5685990543009,121.629036440832,1302
"1303",NA,"Cebuan",10.4337932431844,123.81591796875,1303
"1304",NA,"Celebic",-3.12735082502697,121.812006216031,1304
"1305",NA,"Cenderawasih Bay",-1.86667136664712,133.957121223826,1305
"1306",NA,"Central",7.60793878324658,124.404456696429,1306
"1307",NA,"Central",7.07848336490834,124.423729537662,1307
"1308",NA,"Central",-20.97245,165.14,1308
"1309",NA,"Central",-8.1268025,159.32412,1309
"1310",NA,"Central",-19.2149340961142,-98.2012735983367,1310
"1311",NA,"Central-Eastern Malayo-Polynesian",-11.1571443177556,146.55984894839,1311
"1312",NA,"Central-Eastern Oceanic",-14.5907877408561,148.538862440601,1312
"1313",NA,"Central-Eastern Oceanic",-19.3392628660437,170.040816710892,1313
"1314",NA,"Central-South",-2.34878701781515,114.85075347668,1314
"1315",NA,"Central-Western",-2.1611701782454,135.107080490388,1315
"1316",NA,"Central Cordilleran",17.1361662312194,121.141824422731,1316
"1317",NA,"Central Luzon",15.2112298275254,120.511526604648,1317
"1318",NA,"Central Malayo-Polynesian",-7.12719462405141,126.744768473807,1318
"1319",NA,"Central Malayo-Polynesian",-7.12719462405141,126.744768473807,1319
"1320",NA,"Central Maluku",-3.48003345000075,129.260543465199,1320
"1321",NA,"Central Pacific",-15.150293102973,17.4734996654105,1321
"1322",NA,"Central Papuan",-9.25191502242177,147.260540760691,1322
"1323",NA,"Central Philippine",10.7120755311798,124.510026278088,1323
"1324",NA,"Central Vanuatu",-17.4127618972239,168.428339849302,1324
"1325",NA,"Central Western Plains",24.0914833333333,120.609808333333,1325
"1326",NA,"Cham",11.6673548273132,107.272963506662,1326
"1327",NA,"Chamic",11.9827912068283,106.818903376666,1327
"1328",NA,"Chamorro",13.5605617450814,144.86572265625,1328
"1329",NA,"Choiseul",-6.96858395132667,156.819792585227,1329
"1330",NA,"Chru-Northern",13.98224,108.949533333333,1330
"1331",NA,"Coastal",11.6673548273132,107.272963506662,1331
"1332",NA,"Coastal",13.66966,123.290855,1332
"1333",NA,"Core",1.31824,110.34668,1333
"1334",NA,"Danao",7.05784515038085,121.732345520833,1334
"1335",NA,"Dayic",4.19813333333333,115.76032,1335
"1336",NA,"Dobu-Duau",-9.90975425015012,150.92028396875,1336
"1337",NA,"Dusun",5.95174,116.743163333333,1337
"1338",NA,"Dusunic",5.95174,116.743163333333,1338
"1339",NA,"East",-14.7029424855353,69.1522594336134,1339
"1340",NA,"East",-3.59693662142942,129.788556370942,1340
"1341",NA,"East",-6.17818337240114,127.754217842452,1341
"1342",NA,"East",-2.06300916926043,147.107135673828,1342
"1343",NA,"East",-3.44661797912374,128.56701060858,1343
"1344",NA,"East",-8.50856985226292,159.115371227539,1344
"1345",NA,"East",-19.6100780334246,-98.7597920717402,1345
"1346",NA,"East Arawe",-6.03443333333333,150.310666666667,1346
"1347",NA,"East Coast",-3.04184305848877,121.929001464844,1347
"1348",NA,"East Damar",-8.07258086134465,128.463215743173,1348
"1349",NA,"East Fijian",-17.1842830442822,178.6102978125,1349
"1350",NA,"East Fijian-Polynesian",-15.15981574779,11.5569980367768,1350
"1351",NA,"East Formosan",23.8244663931665,121.497783593925,1351
"1352",NA,"East Makian-Gane",0.00121311257672,127.777752883178,1352
"1353",NA,"East Santo",-15.240553459356,167.090206665039,1353
"1354",NA,"East Uvean-Niuafo'ou",-14.4818274630705,-175.799426040685,1354
"1355",NA,"East Vanuatu",-15.1031261081795,167.908739850561,1355
"1356",NA,"East Vanuatu",-15.1031261081795,167.908739850561,1356
"1357",NA,"Eastern",-3.27008743379459,121.858402893223,1357
"1358",NA,"Eastern",3.2108972732006,123.417169278945,1358
"1359",NA,"Eastern",-2.49596952014354,133.839521257027,1359
"1360",NA,"Eastern Malayo-Polynesian",-11.6592775830834,149.047636636963,1360
"1361",NA,"Ellicean",-4.02152999546827,161.828397572472,1361
"1362",NA,"Elpaputi",-3.32028,128.93888,1362
"1363",NA,"Ende-Lio",-8.73817551643591,121.598397441406,1363
"1364",NA,"Epi",-16.6519133333333,168.1728,1364
"1365",NA,"Erromanga",-18.8478288817954,169.37115682039,1365
"1366",NA,"Extra-Ramelaic",-8.01038640520009,127.199291822963,1366
"1367",NA,"Extreme Northern",-20.20112,164.1244,1367
"1368",NA,"Extreme Southern",-22.1527666666667,166.589,1368
"1369",NA,"Favorlang-Babuza",23.96642,120.640116666667,1369
"1370",NA,"Flores-Lembata",-8.4800493862442,123.030740979687,1370
"1371",NA,"Formosan",23.5403723115969,121.070825290064,1371
"1372",NA,"Futunic",-15.8836908140353,124.332065008318,1372
"1373",NA,"Gabadi",-9.03389,146.9919,1373
"1374",NA,"Gaddangic",17.3750018433813,121.602174257812,1374
"1375",NA,"Gela",-9.4431875,160.3775825,1375
"1376",NA,"Gela-Guadalcanal",-9.47598933060036,160.204654734077,1376
"1377",NA,"Geser-Gorom",-4.0485200284688,131.161410103872,1377
"1378",NA,"Gorontalic",0.803647429242134,122.429561106771,1378
"1379",NA,"Gorontalo-Mongondow",0.861989807441816,123.35298173057,1379
"1380",NA,"Greater Barito",-3.35790577992743,111.30386532112,1380
"1381",NA,"Greater Central Philippine",9.26919300430128,123.423357761564,1381
"1382",NA,"Guadalcanal",-9.62667514817538,160.21241898395,1382
"1383",NA,"Gumawana",-9.2675,150.7976665,1383
"1384",NA,"Haekic",-21.0735,164.869,1384
"1385",NA,"Halia",-5.167175,154.627865,1385
"1386",NA,"Hanunoo",12.4423300724116,121.23305859375,1386
"1387",NA,"Hatuhaha",-3.32028,128.93888,1387
"1388",NA,"Highlands",13.72401,108.68041,1388
"1389",NA,"Hmwaveke",-20.713,164.5885,1389
"1390",NA,"Hote",-7.0771,146.869,1390
"1391",NA,"Hote-Buang",-6.9985,146.754,1391
"1392",NA,"Huon Gulf",-6.95368067930655,147.315895713247,1392
"1393",NA,"Ibaloy",15.7064039651525,121.490874627891,1393
"1394",NA,"Ibanagic",17.5248940400801,121.565681337891,1394
"1395",NA,"Ibanic",0.527336304811517,112.7197265625,1395
"1396",NA,"Ida'an",5.06906,118.25684,1396
"1397",NA,"Ifugaw",16.8981626896678,120.959618217957,1397
"1398",NA,"Ikiribati",-1.09129174695414,172.110425708816,1398
"1399",NA,"Ilocano",17.6440220278727,121.11328125,1399
"1400",NA,"Ilongot",17.0215281803367,121.114185950016,1400
"1401",NA,"Inland",13.2624666666667,123.43683,1401
"1402",NA,"Inner Sulu Sama",5.339195,120.387785,1402
"1403",NA,"Interior",-2.310525,121.1275,1403
"1404",NA,"Iriga",13.38959,123.3307,1404
"1405",NA,"Isinai",16.3299,121.12,1405
"1406",NA,"Isnag",17.9182391680679,122.13587726436,1406
"1407",NA,"Itneg",17.9182391680679,122.13587726436,1407
"1408",NA,"Ivatan",20.5045786831813,121.884156835069,1408
"1409",NA,"Javanese",-7.27069847805084,110.974609375,1409
"1410",NA,"Jayapura Bay",-2.54415,140.62585,1410
"1411",NA,"Kaili-Pamona",-1.7271,120.399,1411
"1412",NA,"Kairiru",-3.35440535760295,143.563842773438,1412
"1413",NA,"Kairiru-Manam",-3.51342337941333,144.134084179688,1413
"1414",NA,"Kajang",2.49037,114.67255,1414
"1415",NA,"Kakabai",-10.1692,149.999,1415
"1416",NA,"Kalamian",11.4475630345007,120.644042490729,1416
"1417",NA,"Kalinga",17.4567425,121.2402725,1417
"1418",NA,"Kalinga-Itneg",17.5490418336136,121.419393452872,1418
"1419",NA,"Kallahan",16.6506342298893,120.982866072652,1419
"1420",NA,"Kanakanabu",23.18375,120.7385,1420
"1421",NA,"Kankanay",16.8764813448339,120.824429108978,1421
"1422",NA,"Kavalan",24.8055407022995,121.725024960938,1422
"1423",NA,"Kayan-Kenyah",2.72141386394452,113.7314745625,1423
"1424",NA,"Kayan Proper",1.31824,111.70898,1424
"1425",NA,"Kayanic",1.2508321598613,113.26492140625,1425
"1426",NA,"Kei-Fordata",-6.63755326835154,131.990098764269,1426
"1427",NA,"Kei-Tanimbar",-7.00951926999071,131.754505046909,1427
"1428",NA,"Kelabitic",3.7972,115.64048,1428
"1429",NA,"Kenyah",3.70180166666667,114.04251,1429
"1430",NA,"Kilenge-Maleu",-5.72,148.42,1430
"1431",NA,"Kilivila",-8.89549078462297,151.937688476562,1431
"1432",NA,"Kilivila-Louisiades",-10.1357525709435,152.58639265625,1432
"1433",NA,"Kinarayan",10.81307,122.2969,1433
"1434",NA,"Kisar",-7.79529342401131,127.304077148438,1434
"1435",NA,"Korap",-4.98333333333333,145.412,1435
"1436",NA,"Kulisusu",-3.9562,122.631333333333,1436
"1437",NA,"Kusaiean",5.3,163,1437
"1438",NA,"Kuyan",11.29929,120.24364,1438
"1439",NA,"Labo",-16.4291,167.442,1439
"1440",NA,"Lamenu-Baki",-16.6348615384615,168.165307692308,1440
"1441",NA,"Lamenu-Lewo",-16.6098,168.171,1441
"1442",NA,"Lampung",-4.52296469554599,104.916984554974,1442
"1443",NA,"Land Dayak",1.186435,109.885255,1443
"1444",NA,"Lavongai-Nalik",-3.01862717730469,151.300012158152,1444
"1445",NA,"Longgu",-9.75,160.666667,1445
"1446",NA,"Lower",-6.66733557666654,147.513427734375,1446
"1447",NA,"Lower Baram",4.43404,114.33472,1447
"1448",NA,"Loyalty Islands",-21.0366589574802,167.257056848958,1448
"1449",NA,"Luang",-8.28711291040661,128.084573888573,1449
"1450",NA,"Luang-Kisar",-8.09038511584849,127.772375192519,1450
"1451",NA,"Madak",-4.04342622844082,152.266393626474,1451
"1452",NA,"Madurese",-7.40756848691353,111.909426649797,1452
"1453",NA,"Magindanao",6.9453,124.50856,1453
"1454",NA,"Magoric",-10.2392488109812,149.30419921875,1454
"1455",NA,"Maisin",-9.20326228728919,148.770407226562,1455
"1456",NA,"Makassar",-5.44102230371796,119.53125,1456
"1457",NA,"Malagasy",-21.0165669738492,46.04670078125,1457
"1458",NA,"Malaita",-9.19428825695556,161.173544832116,1458
"1459",NA,"Malaita-San Cristobal",-9.53243715278439,160.900547792069,1459
"1460",NA,"Malay",-1.26741967006432,107.841287072478,1460
"1461",NA,"Malayic",-0.685199899277996,107.597628410243,1461
"1462",NA,"Malayo-Chamic",3.06827894697572,107.366895066961,1462
"1463",NA,"Malayo-Polynesian",-6.70491704748637,137.649716269906,1463
"1464",NA,"Malayo-Polynesian",-2.48753729702679,106.982023031469,1464
"1465",NA,"Malekula Central",-16.1827189655172,167.398724137931,1465
"1466",NA,"Malekula Coastal",-16.2449298823529,167.498665411765,1466
"1467",NA,"Malekula Coastal",-16.2449298823529,167.498665411765,1467
"1468",NA,"Malekula Interior",-16.305112295082,167.476067213115,1468
"1469",NA,"Mamanwa",9.18887,125.8374,1469
"1470",NA,"Manam",-3.55317788486592,144.27664453125,1470
"1471",NA,"Manobo",7.78036013479328,124.091198806818,1471
"1472",NA,"Mansakan",7.09772,125.88649,1472
"1473",NA,"Manus",-2.06124639400231,146.902162487973,1473
"1474",NA,"Maranao-Iranon",7.11411772557127,120.34423828125,1474
"1475",NA,"Markham",-6.66733557666654,147.513427734375,1475
"1476",NA,"Marquesic",-4.9805674911519,-142.992085613715,1476
"1477",NA,"Marshallese",7.87763837400782,171.596844971193,1477
"1478",NA,"Masela-South Babar",-8.2540918756856,129.587153698741,1478
"1479",NA,"Masiwang",-3.3086450284688,130.570895103872,1479
"1480",NA,"Melanau",2.5,111.5,1480
"1481",NA,"Melanau-Kajang",2.495185,113.086275,1481
"1482",NA,"Mengen",-5.22224651322738,151.435546875,1482
"1483",NA,"Meso-Cordilleran",16.8742770098963,121.112466422364,1483
"1484",NA,"Meso Melanesian",-6.02535098092675,154.941726553379,1484
"1485",NA,"Meso Melanesian",-6.02535098092675,154.941726553379,1485
"1486",NA,"Micronesian",7.15326138795786,152.684481547185,1486
"1487",NA,"Micronesian",7.15326138795786,152.684481547185,1487
"1488",NA,"Micronesian Proper",7.51260048393746,152.082564124039,1488
"1489",NA,"Minahasan",1.3392003035903,124.807554140625,1489
"1490",NA,"Misima",-10.682125,152.696155,1490
"1491",NA,"Modang",1.249325,114.029845,1491
"1492",NA,"Moklen",9.50737630246525,98.8469345977253,1492
"1493",NA,"Mokoreng-Loniu",-2.04460843486434,147.377576660156,1493
"1494",NA,"Mongondowic",0.949503374741339,124.738112666268,1494
"1495",NA,"Mono-Uruava",-6.65478493684365,155.606991025934,1495
"1496",NA,"Mor",-2.9353,135.85,1496
"1497",NA,"Muller-Schwaner ‘Punan'",1.1864386394452,113.291015625,1497
"1498",NA,"Mumeng",-6.9199,146.639,1498
"1499",NA,"Muna-Buton",-5.29137549240913,122.596913819819,1499
"1500",NA,"Munan",-5.02494438828616,122.829238122306,1500
"1501",NA,"Munic",-5.02494438828616,122.829238122306,1501
"1502",NA,"Murut",5,116,1502
"1503",NA,"Murutic",5,116,1503
"1504",NA,"Naga",13.66966,123.290855,1504
"1505",NA,"Nauruan",-1.11153781957284,166.528582279545,1505
"1506",NA,"Nehan",-4.55594517837831,154.209427718905,1506
"1507",NA,"Nehan-North Bougainville",-5.04462522720685,154.571640698346,1507
"1508",NA,"Nemi",-20.6913331093453,164.81778984375,1508
"1509",NA,"New Caledonian",-20.9731201459665,165.016103926809,1509
"1510",NA,"New Caledonian",-20.9731201459665,165.016103926809,1510
"1511",NA,"New Georgia",-8.27576695052908,157.243721587612,1511
"1512",NA,"New Ireland",-6.11694217390433,155.43651141764,1512
"1513",NA,"Ngero",-5.71332637783856,147.9475328125,1513
"1514",NA,"Ngero-Vitiaz",-5.65514374791234,147.700927846357,1514
"1515",NA,"Nias",-0.307615709643901,98.4375,1515
"1516",NA,"Nila-Serua",-6.53087,129.758145,1516
"1517",NA,"Nimoa-Sudest",-11.4251866666667,153.378156666667,1517
"1518",NA,"North",0.120075151795151,119.739964570313,1518
"1519",NA,"North",-1.0284395343217,126.617086151343,1519
"1520",NA,"North",-7.78828751401346,126.394981937641,1520
"1521",NA,"North",-7.0520339099331,147.779025415929,1521
"1522",NA,"North",-19.6993902928704,165.151145685369,1522
"1523",NA,"North and Central Vanuatu",-15.9712994792931,167.579115364611,1523
"1524",NA,"North and Central Vanuatu",-16.1816851836934,167.431329758265,1524
"1525",NA,"North Bomberai",-2.8274,132.69425,1525
"1526",NA,"North Borneo",3.59445431803537,114.576019525315,1526
"1527",NA,"North Central Cordilleran",17.198186710544,121.143503224479,1527
"1528",NA,"North Mangyan",13.1667666666667,120.992333333333,1528
"1529",NA,"North New Guinea",-5.28324248012223,146.658514418844,1529
"1530",NA,"North New Guinea",-5.28324248012223,146.658514418844,1530
"1531",NA,"North Papuan Mainland-D'Entrecasteaux",-9.70423718934958,150.416950269311,1531
"1532",NA,"North Sarawakan",3.19770906229864,114.125846847307,1532
"1533",NA,"Northeast",1.51393,125.05212,1533
"1534",NA,"Northeast Vanuatu-Banks Islands",-15.9025003626882,167.627443359103,1534
"1535",NA,"Northeast Vanuatu-Banks Islands",-16.1562826801883,167.548486432914,1535
"1536",NA,"Northeastern Luzon",17.0791377809639,122.101140078125,1536
"1537",NA,"Northern",24.4702212559737,121.805219047224,1537
"1538",NA,"Northern",-3.03081,119.75098,1538
"1539",NA,"Northern",3.04667636588833,118.974162328125,1539
"1540",NA,"Northern",0.42569,120.89031,1540
"1541",NA,"Northern",17.0791377809639,122.101140078125,1541
"1542",NA,"Northern",-20.5344332846403,164.517780400815,1542
"1543",NA,"Northern",-8.88191327910842,161.042556675595,1543
"1544",NA,"Northern",-4.6906,145.975,1544
"1545",NA,"Northern Cham",15.22336,109.1743,1545
"1546",NA,"Northern Cordilleran",17.4796060955124,121.714873465794,1546
"1547",NA,"Northern Luzon",17.0734938084636,121.317347161878,1547
"1548",NA,"Northwest Formosan",23.8620179998242,121.294924829893,1548
"1549",NA,"Northwest Seram",-3.07796030635209,128.283088067816,1549
"1550",NA,"Northwest Sumatra-Barrier Islands",-0.41642721189313,98.7401838095238,1550
"1551",NA,"Nuclear",-9.87614713120379,150.386870103203,1551
"1552",NA,"Nuclear",-13.9528614511339,32.7415466481695,1552
"1553",NA,"Nuclear Bel",-5.0198,145.7825,1553
"1554",NA,"Nuclear Cordilleran",16.9789022586254,120.971071831734,1554
"1555",NA,"Nuclear Muna-Buton",-5.02494438828616,122.829238122306,1555
"1556",NA,"Nuclear Southern Cordilleran",16.2729421239946,121.186069494748,1556
"1557",NA,"Nuclear Timor",-8.77386666666667,125.971333333333,1557
"1558",NA,"Numbami",-7.0520339099331,147.779025415929,1558
"1559",NA,"Nunusaku",-3.32373208819986,128.472369761659,1559
"1560",NA,"Oceanic",-11.8835102972847,149.413952798885,1560
"1561",NA,"Oumic",-10.2392488109812,149.30419921875,1561
"1562",NA,"Paiwan",22.4232392837446,120.81793808125,1562
"1563",NA,"Pak-Tong",-2.0527,147.767,1563
"1564",NA,"Palauan",7.45133706377975,134.340220799795,1564
"1565",NA,"Palawanic",9.15551694585844,118.630582441316,1565
"1566",NA,"Pamona",-1.75,120.83,1566
"1567",NA,"Pampangan",14.9734289651525,121.394334627891,1567
"1568",NA,"Papuan Tip",-9.7296246526007,149.777569264275,1568
"1569",NA,"Papuan Tip",-9.7296246526007,149.777569264275,1569
"1570",NA,"Pasismanua",-6.20609004577463,149.7216796875,1570
"1571",NA,"Periphera",11.1539,122.512,1571
"1572",NA,"Peripheral",-7.63771453928455,147.103250148926,1572
"1573",NA,"Philippine",12.3641095862894,122.582154050226,1573
"1574",NA,"Philippine",12.3641095862894,122.582154050226,1574
"1575",NA,"Piru Bay",-3.44661797912374,128.56701060858,1575
"1576",NA,"Piva-Banoni",-6.33190735317394,155.204880859375,1576
"1577",NA,"Polynesian",-15.0819516210018,5.13187112232589,1577
"1578",NA,"Polynesian",-15.0819516210018,5.13187112232589,1578
"1579",NA,"Ponapeic",5.97357274092988,160.532053416773,1579
"1580",NA,"Ponapeic-Trukic",8.04346453313158,148.399729431668,1580
"1581",NA,"Pukapuka",-10.9247420638001,-165.843827624424,1581
"1582",NA,"Puyuma",22.6899395128695,121.034384889323,1582
"1583",NA,"Raja Ampat",-0.906253333333333,130.404053333333,1583
"1584",NA,"Ramelaic",-8.48342337239972,125.766507792477,1584
"1585",NA,"Rapanui",-27.1178128423212,-109.371643066406,1585
"1586",NA,"Reefs-Santa Cruz",-10.53704,165.8997325,1586
"1587",NA,"Rejang",-3.42,102.5,1587
"1588",NA,"Remote Oceanic",-15.029456717696,145.641708244552,1588
"1589",NA,"Roinji-Nenaya",-5.8802,146.816333333333,1589
"1590",NA,"Romblon",12.40466,122.56031,1590
"1591",NA,"Rotuman",-12.7863633858312,177.138087277041,1591
"1592",NA,"Rukai",22.8305598544833,120.847032057292,1592
"1593",NA,"Saaroa",23.0371,120.651,1593
"1594",NA,"Sabahan",5.73107,117.1215825,1594
"1595",NA,"Saluan-Banggai",-1.24511996715581,123.343896972656,1595
"1596",NA,"Sama-Bajaw",-0.944436337408041,121.819487054518,1596
"1597",NA,"Samar-Waray",12,125,1597
"1598",NA,"Sambalic",15.3291655555556,120.210713333333,1598
"1599",NA,"Samoan",-14,-170,1599
"1600",NA,"Samoic-Outlier",-11.7724334982803,86.2263127892268,1600
"1601",NA,"San Cristobal",-10.0283888666667,160.500152133333,1601
"1602",NA,"Sangiric",4.08737078401774,125.159446113281,1602
"1603",NA,"Santa Isabel",-8.20351889098578,159.435997366477,1603
"1604",NA,"Saposa-Tinputz",-5.73515564711474,155.104226972253,1604
"1605",NA,"Sarmi",-2.150605,139.362325,1605
"1606",NA,"Sarmi-Jayapura Bay",-2.28178666666667,139.7835,1606
"1607",NA,"Sasak-Sumbawa",-8.69355400118156,116.8756434375,1607
"1608",NA,"Sawai-Nuaulu",-3.2341,129.148,1608
"1609",NA,"Schouten",-3.41064669958095,143.62549155692,1609
"1610",NA,"Seediq",24.1626843189406,121.424105084375,1610
"1611",NA,"Seram",-3.32904387664312,129.245454453222,1611
"1612",NA,"Seram Straits",-3.44661797912374,128.56701060858,1612
"1613",NA,"Siau",-3.153705,142.35401,1613
"1614",NA,"Sinagoro-Keapara",-9.83362332687904,147.687058154297,1614
"1615",NA,"Sinauna",14.62541,121.45323,1615
"1616",NA,"Sio",-5.9604,147.353,1616
"1617",NA,"Small Nambas",-16.4149705882353,167.563235294118,1617
"1618",NA,"Solehua",-3.25,128.75,1618
"1619",NA,"Solos",-4.88450498829041,154.480658485549,1619
"1620",NA,"South",-0.875066448888053,112.68777146875,1620
"1621",NA,"South",-4.66057035860752,127.242244344624,1621
"1622",NA,"South",7.73671298636232,124.196162700725,1622
"1623",NA,"South",-6.9985,146.754,1623
"1624",NA,"South",-19.3485941176471,166.159882352941,1624
"1625",NA,"South-Central Cordilleran",16.8742770098963,121.112466422364,1625
"1626",NA,"South Bomberai",-3.66693,133.7915,1626
"1627",NA,"South Halmahera",-0.810757406413835,129.813187372691,1627
"1628",NA,"South Halmahera-West New Guinea",-1.47070363155964,132.40314602965,1628
"1629",NA,"South Halmahera-West New Guinea",-1.47070363155964,132.40314602965,1629
"1630",NA,"South Mangyan",12.5409650362058,121.221529296875,1630
"1631",NA,"South New Ireland-Northwest Solomonic",-6.71964749376838,156.243364108212,1631
"1632",NA,"South Sulawesi",-3.00532446740639,117.84377325205,1632
"1633",NA,"South Vanuatu",-19.4704691895724,169.397649020158,1633
"1634",NA,"Southeast",0.792831872729578,128.342370876875,1634
"1635",NA,"Southeast Islands",-2.38930562994283,147.61206640625,1635
"1636",NA,"Southeast Maluku",-7.1955022708103,131.63670818823,1636
"1637",NA,"Southeast Solomonic",-9.51263089938648,160.656374789265,1637
"1638",NA,"Southeast Solomonic",-9.51263089938648,160.656374789265,1638
"1639",NA,"Southeastern",-3.34508622885528,121.803384593985,1639
"1640",NA,"Southern",0.983301177589975,110.889939453125,1640
"1641",NA,"Southern",-7.75345127326905,131.283317612191,1641
"1642",NA,"Southern",-21.68665,165.845285714286,1642
"1643",NA,"Southern",-9.48232955828297,161.3683195875,1643
"1644",NA,"Southern",-5.349,145.59,1644
"1645",NA,"Southern Cordilleran",16.4159708725808,121.061089921721,1645
"1646",NA,"Southwest",22.917922936146,120.76171875,1646
"1647",NA,"Southwest",-4.6236,121.824,1647
"1648",NA,"Southwest Babar",-8.28444635517256,129.917695058198,1648
"1649",NA,"Southwest New Britain",-5.91097719769367,149.753045039062,1649
"1650",NA,"Squliq",24.533554176288,121.393595210937,1650
"1651",NA,"St. Matthias",-1.44002883040388,149.623401367188,1651
"1652",NA,"Suauic",-10.5223058174303,150.659185818142,1652
"1653",NA,"Subanon",7.92156347960686,123.256781436681,1653
"1654",NA,"Sula",-1.8234225,124.62890625,1654
"1655",NA,"Sulu-Borneo",-1.93744789266849,121.69634794215,1655
"1656",NA,"Sundanese",-6.98486149438615,106.915849839275,1656
"1657",NA,"Tabar",-3.23796382264451,152.128678079871,1657
"1658",NA,"Tagalog",14.4461087015762,121.456962846283,1658
"1659",NA,"Tahitic",-22.3000498355049,-77.3215643010412,1659
"1660",NA,"Taliabo",-1.8234225,124.62890625,1660
"1661",NA,"Tamanic",1.17,112.33,1661
"1662",NA,"Tami",-6.7002,147.732,1662
"1663",NA,"Tanna",-19.5325318080683,169.353508236813,1663
"1664",NA,"Taupota",-10.10336,150.426166,1664
"1665",NA,"Tboli",6.19896696513434,124.427124023438,1665
"1666",NA,"Temotu",-11.1426436363636,166.407151818182,1666
"1667",NA,"Temotu",-11.1426436363636,166.407151818182,1667
"1668",NA,"Teun-Nila-Serua",-6.53087,129.758145,1668
"1669",NA,"Thao",23.875791916101,120.877075195312,1669
"1670",NA,"Three Rivers",-3.07796030635209,128.283088067816,1670
"1671",NA,"Timor",-8.16736248048423,126.151745726803,1671
"1672",NA,"Timor-Babar",-8.77386666666667,125.971333333333,1672
"1673",NA,"Tokelauan",-8.95178497468883,-171.536554902738,1673
"1674",NA,"Tolitoli",1.14995,120.87458,1674
"1675",NA,"Tomini",0.42569,120.89031,1675
"1676",NA,"Tomini-Tolitoli",0.78782,120.882445,1676
"1677",NA,"Tongic",-19.443459337596,-172.368121940527,1677
"1678",NA,"Toraja-Sa'dan",-3.03081,119.75098,1678
"1679",NA,"Trukic",8.5954356777187,145.16444303564,1679
"1680",NA,"Tsou",23.5,120.75,1680
"1681",NA,"Tsouic",23.2368214285714,120.723661428571,1681
"1682",NA,"Tuam",-5.9046,147.7495,1682
"1683",NA,"Tukangbesi-Bonerate",-5.82423770065508,122.132265214844,1683
"1684",NA,"Ulat Inai",-3.07796030635209,128.283088067816,1684
"1685",NA,"Uliase",-3.32028,128.93888,1685
"1686",NA,"Umiray Dumaget",14.5164,122.1715,1686
"1687",NA,"Utupua",-11.26955,166.484526666667,1687
"1688",NA,"Utupua-Vanikoro",-11.4887028571429,166.697105714286,1688
"1689",NA,"Vitiaz",-5.64605271198637,147.662395820397,1689
"1690",NA,"Wailic",-21.415,165.4035,1690
"1691",NA,"Wampar",-6.66733557666654,147.513427734375,1691
"1692",NA,"Warayan",12,125,1692
"1693",NA,"Waropen",-2.33,136.58,1693
"1694",NA,"West",-0.75517483666604,112.883016101563,1694
"1695",NA,"West",3.78566552016896,123.132232730469,1695
"1696",NA,"West",-2.0629850790795,146.568766909871,1696
"1697",NA,"West",-8.11720586847288,157.3068171875,1697
"1698",NA,"West Central Papuan",-8.687815,146.714961,1698
"1699",NA,"West Coast",-3.80945222222222,121.833694444444,1699
"1700",NA,"West Damar",-8.07258086134465,128.463215743173,1700
"1701",NA,"West Fijian",-17,177.3,1701
"1702",NA,"West Fijian-Rotuman",-14.8931816929156,177.219043638521,1702
"1703",NA,"West New Guinea",-1.86667136664712,133.957121223826,1703
"1704",NA,"West Santo",-15.3564325,166.872869444444,1704
"1705",NA,"West Southern Cordilleran",16.2141184366621,121.043391245623,1705
"1706",NA,"Western",0.21727,116.76034,1706
"1707",NA,"Western",-2.32191476584128,125.7848114511,1707
"1708",NA,"Western",-5.02494438828616,122.829238122306,1708
"1709",NA,"Western Malayo-Polynesian",-1.11644376222108,115.456758166264,1709
"1710",NA,"Western Oceanic",-7.04137181819797,151.090484067009,1710
"1711",NA,"Western Plains",24.0606702737287,120.647989313616,1711
"1712",NA,"Western Sulu Sama",6.27167,120.53586,1712
"1713",NA,"Wetar",-7.78828751401346,126.394981937641,1713
"1714",NA,"Willaumez",-5.28008994572581,150.628791666667,1714
"1715",NA,"Wolio-Kamaru",-5.76494403414826,123.898927157444,1715
"1716",NA,"Wotu-Wolio",-5.76494403414826,123.898927157444,1716
"1717",NA,"Xaracuu-Xaragure",-21.7319,166.124,1717
"1718",NA,"Yamdena",-7.75345127326905,131.283317612191,1718
"1719",NA,"Yami",22.1889453684863,121.933780809292,1719
"1720",NA,"Yapen",-2.1611701782454,135.107080490388,1720
"1721",NA,"Yapese",9.59852977216943,138.292190823672,1721
"1722",NA,"Zire-Tiri",-21.73455,165.637,1722
"1723",NA,NA,18.2099161542917,117.869817007278,1723
"1724",NA,NA,7.80342261272737,111.327189961411,1724
"1725",NA,NA,8.76368491562747,112.936373551409,1725
"1726",NA,NA,5.80215296570731,114.496364844963,1726
"1727",NA,NA,4.38823209462156,116.644534143328,1727
"1728",NA,NA,3.84852170704907,118.936125353492,1728
"1729",NA,NA,1.75045314214341,123.568276956762,1729
"1730",NA,NA,0.102019742715944,128.893871324048,1730
"1731",NA,NA,-4.77103934150878,141.425739008862,1731
"1732",NA,NA,-4.93188905980099,141.927470817386,1732
"1733",NA,NA,-5.05889643686432,142.21108297858,1733
"1734",NA,NA,-5.28164842707237,140.176690224996,1734
